<?xml version="1.0" encoding="utf-8" standalone="yes"?>
<kml xmlns="http://earth.google.com/kml/2.0">
<Document>
<name>Mapinfo Import</name>
  <Style id="polystyle">
    <LineStyle>
      <color>ff7faaff</color>
    </LineStyle>
    <PolyStyle>
      <fill>0</fill>
    </PolyStyle>
  </Style>
  <Style id="textstyle">
      <IconStyle>
        <Icon></Icon>
      </IconStyle>
      <LabelStyle>
        <color>ff0000ff</color>
      </LabelStyle>
    </Style>
<Folder>
<name>Layer _866_ICR_list</name>
<Placemark>
  <name>
    <![CDATA[ADASND01]]>
  </name>
  <LookAt>
    <longitude>79.74667</longitude>
    <latitude>18.74815</latitude>
    <range>1000</range>
    <tilt>0</tilt>
    <heading>0</heading>
  </LookAt>
  <Point>
    <coordinates>79.74667,18.74815,0</coordinates>
  </Point>
</Placemark>
<Placemark>
  <name>
    <![CDATA[ADDNPL01]]>
  </name>
  <LookAt>
    <longitude>79.15333</longitude>
    <latitude>18.99693</latitude>
    <range>1000</range>
    <tilt>0</tilt>
    <heading>0</heading>
  </LookAt>
  <Point>
    <coordinates>79.15333,18.99693,0</coordinates>
  </Point>
</Placemark>
<Placemark>
  <name>
    <![CDATA[ADNDPA01]]>
  </name>
  <LookAt>
    <longitude>79.38002</longitude>
    <latitude>19.36921</latitude>
    <range>1000</range>
    <tilt>0</tilt>
    <heading>0</heading>
  </LookAt>
  <Point>
    <coordinates>79.38002,19.36921,0</coordinates>
  </Point>
</Placemark>
<Placemark>
  <name>
    <![CDATA[ADPMBI01]]>
  </name>
  <LookAt>
    <longitude>78.6346</longitude>
    <latitude>19.19393</latitude>
    <range>1000</range>
    <tilt>0</tilt>
    <heading>0</heading>
  </LookAt>
  <Point>
    <coordinates>78.6346,19.19393,0</coordinates>
  </Point>
</Placemark>
<Placemark>
  <name>
    <![CDATA[ADDRMR01]]>
  </name>
  <LookAt>
    <longitude>78.07995</longitude>
    <latitude>18.97007</latitude>
    <range>1000</range>
    <tilt>0</tilt>
    <heading>0</heading>
  </LookAt>
  <Point>
    <coordinates>78.07995,18.97007,0</coordinates>
  </Point>
</Placemark>
<Placemark>
  <name>
    <![CDATA[ADKVCM01]]>
  </name>
  <LookAt>
    <longitude>79.1978</longitude>
    <latitude>18.95747</latitude>
    <range>1000</range>
    <tilt>0</tilt>
    <heading>0</heading>
  </LookAt>
  <Point>
    <coordinates>79.1978,18.95747,0</coordinates>
  </Point>
</Placemark>
<Placemark>
  <name>
    <![CDATA[ADPNGD01]]>
  </name>
  <LookAt>
    <longitude>79.00463</longitude>
    <latitude>19.35969</latitude>
    <range>1000</range>
    <tilt>0</tilt>
    <heading>0</heading>
  </LookAt>
  <Point>
    <coordinates>79.00463,19.35969,0</coordinates>
  </Point>
</Placemark>
<Placemark>
  <name>
    <![CDATA[ADBMBR01]]>
  </name>
  <LookAt>
    <longitude>79.33237</longitude>
    <latitude>19.51688</latitude>
    <range>1000</range>
    <tilt>0</tilt>
    <heading>0</heading>
  </LookAt>
  <Point>
    <coordinates>79.33237,19.51688,0</coordinates>
  </Point>
</Placemark>
<Placemark>
  <name>
    <![CDATA[ADUSGN01]]>
  </name>
  <LookAt>
    <longitude>78.87195</longitude>
    <latitude>19.39534</latitude>
    <range>1000</range>
    <tilt>0</tilt>
    <heading>0</heading>
  </LookAt>
  <Point>
    <coordinates>78.87195,19.39534,0</coordinates>
  </Point>
</Placemark>
<Placemark>
  <name>
    <![CDATA[ADDNNR01]]>
  </name>
  <LookAt>
    <longitude>78.58595</longitude>
    <latitude>19.51494</latitude>
    <range>1000</range>
    <tilt>0</tilt>
    <heading>0</heading>
  </LookAt>
  <Point>
    <coordinates>78.58595,19.51494,0</coordinates>
  </Point>
</Placemark>
<Placemark>
  <name>
    <![CDATA[ADDDPL01]]>
  </name>
  <LookAt>
    <longitude>79.10825</longitude>
    <latitude>19.05428</latitude>
    <range>1000</range>
    <tilt>0</tilt>
    <heading>0</heading>
  </LookAt>
  <Point>
    <coordinates>79.10825,19.05428,0</coordinates>
  </Point>
</Placemark>
<Placemark>
  <name>
    <![CDATA[ADTNUR01]]>
  </name>
  <LookAt>
    <longitude>77.8405</longitude>
    <latitude>19.0048</latitude>
    <range>1000</range>
    <tilt>0</tilt>
    <heading>0</heading>
  </LookAt>
  <Point>
    <coordinates>77.8405,19.0048,0</coordinates>
  </Point>
</Placemark>
<Placemark>
  <name>
    <![CDATA[ADGDPT01]]>
  </name>
  <LookAt>
    <longitude>79.34803</longitude>
    <latitude>18.86054</latitude>
    <range>1000</range>
    <tilt>0</tilt>
    <heading>0</heading>
  </LookAt>
  <Point>
    <coordinates>79.34803,18.86054,0</coordinates>
  </Point>
</Placemark>
<Placemark>
  <name>
    <![CDATA[ADDWLD01]]>
  </name>
  <LookAt>
    <longitude>79.91408</longitude>
    <latitude>18.86519</latitude>
    <range>1000</range>
    <tilt>0</tilt>
    <heading>0</heading>
  </LookAt>
  <Point>
    <coordinates>79.91408,18.86519,0</coordinates>
  </Point>
</Placemark>
<Placemark>
  <name>
    <![CDATA[ADVNKD01]]>
  </name>
  <LookAt>
    <longitude>79.32077</longitude>
    <latitude>19.47232</latitude>
    <range>1000</range>
    <tilt>0</tilt>
    <heading>0</heading>
  </LookAt>
  <Point>
    <coordinates>79.32077,19.47232,0</coordinates>
  </Point>
</Placemark>
<Placemark>
  <name>
    <![CDATA[ADRCNI01]]>
  </name>
  <LookAt>
    <longitude>79.50269</longitude>
    <latitude>19.1811</latitude>
    <range>1000</range>
    <tilt>0</tilt>
    <heading>0</heading>
  </LookAt>
  <Point>
    <coordinates>79.50269,19.1811,0</coordinates>
  </Point>
</Placemark>
<Placemark>
  <name>
    <![CDATA[ADANKL01]]>
  </name>
  <LookAt>
    <longitude>78.56981</longitude>
    <latitude>19.60516</latitude>
    <range>1000</range>
    <tilt>0</tilt>
    <heading>0</heading>
  </LookAt>
  <Point>
    <coordinates>78.56981,19.60516,0</coordinates>
  </Point>
</Placemark>
<Placemark>
  <name>
    <![CDATA[ADNGWA01]]>
  </name>
  <LookAt>
    <longitude>77.86007</longitude>
    <latitude>19.18594</latitude>
    <range>1000</range>
    <tilt>0</tilt>
    <heading>0</heading>
  </LookAt>
  <Point>
    <coordinates>77.86007,19.18594,0</coordinates>
  </Point>
</Placemark>
<Placemark>
  <name>
    <![CDATA[ADDHEG01]]>
  </name>
  <LookAt>
    <longitude>77.94035</longitude>
    <latitude>19.065</latitude>
    <range>1000</range>
    <tilt>0</tilt>
    <heading>0</heading>
  </LookAt>
  <Point>
    <coordinates>77.94035,19.065,0</coordinates>
  </Point>
</Placemark>
<Placemark>
  <name>
    <![CDATA[ADKPPL01]]>
  </name>
  <LookAt>
    <longitude>78.45702</longitude>
    <latitude>19.72406</latitude>
    <range>1000</range>
    <tilt>0</tilt>
    <heading>0</heading>
  </LookAt>
  <Point>
    <coordinates>78.45702,19.72406,0</coordinates>
  </Point>
</Placemark>
<Placemark>
  <name>
    <![CDATA[ADMDPL01]]>
  </name>
  <LookAt>
    <longitude>79.15923</longitude>
    <latitude>19.02124</latitude>
    <range>1000</range>
    <tilt>0</tilt>
    <heading>0</heading>
  </LookAt>
  <Point>
    <coordinates>79.15923,19.02124,0</coordinates>
  </Point>
</Placemark>
<Placemark>
  <name>
    <![CDATA[ADMDRM01]]>
  </name>
  <LookAt>
    <longitude>79.41399</longitude>
    <latitude>19.16514</latitude>
    <range>1000</range>
    <tilt>0</tilt>
    <heading>0</heading>
  </LookAt>
  <Point>
    <coordinates>79.41399,19.16514,0</coordinates>
  </Point>
</Placemark>
<Placemark>
  <name>
    <![CDATA[ADSRPR02]]>
  </name>
  <LookAt>
    <longitude>78.94698</longitude>
    <latitude>19.33809</latitude>
    <range>1000</range>
    <tilt>0</tilt>
    <heading>0</heading>
  </LookAt>
  <Point>
    <coordinates>78.94698,19.33809,0</coordinates>
  </Point>
</Placemark>
<Placemark>
  <name>
    <![CDATA[ADCRKT01]]>
  </name>
  <LookAt>
    <longitude>79.2626</longitude>
    <latitude>19.30946</latitude>
    <range>1000</range>
    <tilt>0</tilt>
    <heading>0</heading>
  </LookAt>
  <Point>
    <coordinates>79.2626,19.30946,0</coordinates>
  </Point>
</Placemark>
<Placemark>
  <name>
    <![CDATA[ADINDN01]]>
  </name>
  <LookAt>
    <longitude>79.23888</longitude>
    <latitude>19.46293</latitude>
    <range>1000</range>
    <tilt>0</tilt>
    <heading>0</heading>
  </LookAt>
  <Point>
    <coordinates>79.23888,19.46293,0</coordinates>
  </Point>
</Placemark>
<Placemark>
  <name>
    <![CDATA[ADPDPT01]]>
  </name>
  <LookAt>
    <longitude>79.10903</longitude>
    <latitude>18.99492</latitude>
    <range>1000</range>
    <tilt>0</tilt>
    <heading>0</heading>
  </LookAt>
  <Point>
    <coordinates>79.10903,18.99492,0</coordinates>
  </Point>
</Placemark>
<Placemark>
  <name>
    <![CDATA[ADMDKL01]]>
  </name>
  <LookAt>
    <longitude>79.69978</longitude>
    <latitude>18.79286</latitude>
    <range>1000</range>
    <tilt>0</tilt>
    <heading>0</heading>
  </LookAt>
  <Point>
    <coordinates>79.69978,18.79286,0</coordinates>
  </Point>
</Placemark>
<Placemark>
  <name>
    <![CDATA[ADMNMD01]]>
  </name>
  <LookAt>
    <longitude>78.11372</longitude>
    <latitude>19.06209</latitude>
    <range>1000</range>
    <tilt>0</tilt>
    <heading>0</heading>
  </LookAt>
  <Point>
    <coordinates>78.11372,19.06209,0</coordinates>
  </Point>
</Placemark>
<Placemark>
  <name>
    <![CDATA[ADYLLR01]]>
  </name>
  <LookAt>
    <longitude>79.77373</longitude>
    <latitude>19.26778</latitude>
    <range>1000</range>
    <tilt>0</tilt>
    <heading>0</heading>
  </LookAt>
  <Point>
    <coordinates>79.77373,19.26778,0</coordinates>
  </Point>
</Placemark>
<Placemark>
  <name>
    <![CDATA[ADGODI01]]>
  </name>
  <LookAt>
    <longitude>78.05448</longitude>
    <latitude>19.00035</latitude>
    <range>1000</range>
    <tilt>0</tilt>
    <heading>0</heading>
  </LookAt>
  <Point>
    <coordinates>78.05448,19.00035,0</coordinates>
  </Point>
</Placemark>
<Placemark>
  <name>
    <![CDATA[ADJNKP01]]>
  </name>
  <LookAt>
    <longitude>79.57565</longitude>
    <latitude>19.12266</latitude>
    <range>1000</range>
    <tilt>0</tilt>
    <heading>0</heading>
  </LookAt>
  <Point>
    <coordinates>79.57565,19.12266,0</coordinates>
  </Point>
</Placemark>
<Placemark>
  <name>
    <![CDATA[ADNRNR01]]>
  </name>
  <LookAt>
    <longitude>78.85404</longitude>
    <latitude>19.50155</latitude>
    <range>1000</range>
    <tilt>0</tilt>
    <heading>0</heading>
  </LookAt>
  <Point>
    <coordinates>78.85404,19.50155,0</coordinates>
  </Point>
</Placemark>
<Placemark>
  <name>
    <![CDATA[ADKNVL01]]>
  </name>
  <LookAt>
    <longitude>79.74489</longitude>
    <latitude>19.19366</latitude>
    <range>1000</range>
    <tilt>0</tilt>
    <heading>0</heading>
  </LookAt>
  <Point>
    <coordinates>79.74489,19.19366,0</coordinates>
  </Point>
</Placemark>
<Placemark>
  <name>
    <![CDATA[ADHASX01]]>
  </name>
  <LookAt>
    <longitude>78.79827</longitude>
    <latitude>19.4147</latitude>
    <range>1000</range>
    <tilt>0</tilt>
    <heading>0</heading>
  </LookAt>
  <Point>
    <coordinates>78.79827,19.4147,0</coordinates>
  </Point>
</Placemark>
<Placemark>
  <name>
    <![CDATA[ADKDRM01]]>
  </name>
  <LookAt>
    <longitude>79.61062</longitude>
    <latitude>18.7658</latitude>
    <range>1000</range>
    <tilt>0</tilt>
    <heading>0</heading>
  </LookAt>
  <Point>
    <coordinates>79.61062,18.7658,0</coordinates>
  </Point>
</Placemark>
<Placemark>
  <name>
    <![CDATA[ADSLM01]]>
  </name>
  <LookAt>
    <longitude>78.53557</longitude>
    <latitude>19.32219</latitude>
    <range>1000</range>
    <tilt>0</tilt>
    <heading>0</heading>
  </LookAt>
  <Point>
    <coordinates>78.53557,19.32219,0</coordinates>
  </Point>
</Placemark>
<Placemark>
  <name>
    <![CDATA[ADMMDG01]]>
  </name>
  <LookAt>
    <longitude>78.94473</longitude>
    <latitude>19.12169</latitude>
    <range>1000</range>
    <tilt>0</tilt>
    <heading>0</heading>
  </LookAt>
  <Point>
    <coordinates>78.94473,19.12169,0</coordinates>
  </Point>
</Placemark>
<Placemark>
  <name>
    <![CDATA[ADPNKR01]]>
  </name>
  <LookAt>
    <longitude>78.21782</longitude>
    <latitude>19.23917</latitude>
    <range>1000</range>
    <tilt>0</tilt>
    <heading>0</heading>
  </LookAt>
  <Point>
    <coordinates>78.21782,19.23917,0</coordinates>
  </Point>
</Placemark>
<Placemark>
  <name>
    <![CDATA[ADKNNP01]]>
  </name>
  <LookAt>
    <longitude>79.66904</longitude>
    <latitude>19.14837</latitude>
    <range>1000</range>
    <tilt>0</tilt>
    <heading>0</heading>
  </LookAt>
  <Point>
    <coordinates>79.66904,19.14837,0</coordinates>
  </Point>
</Placemark>
<Placemark>
  <name>
    <![CDATA[ADNRPR01]]>
  </name>
  <LookAt>
    <longitude>79.49975</longitude>
    <latitude>19.22655</latitude>
    <range>1000</range>
    <tilt>0</tilt>
    <heading>0</heading>
  </LookAt>
  <Point>
    <coordinates>79.49975,19.22655,0</coordinates>
  </Point>
</Placemark>
<Placemark>
  <name>
    <![CDATA[ADYPLG01]]>
  </name>
  <LookAt>
    <longitude>78.60191</longitude>
    <latitude>19.66103</latitude>
    <range>1000</range>
    <tilt>0</tilt>
    <heading>0</heading>
  </LookAt>
  <Point>
    <coordinates>78.60191,19.66103,0</coordinates>
  </Point>
</Placemark>
<Placemark>
  <name>
    <![CDATA[ADPTYP01]]>
  </name>
  <LookAt>
    <longitude>78.68463</longitude>
    <latitude>19.06768</latitude>
    <range>1000</range>
    <tilt>0</tilt>
    <heading>0</heading>
  </LookAt>
  <Point>
    <coordinates>78.68463,19.06768,0</coordinates>
  </Point>
</Placemark>
<Placemark>
  <name>
    <![CDATA[ADKLMD01]]>
  </name>
  <LookAt>
    <longitude>78.94901</longitude>
    <latitude>19.0907</latitude>
    <range>1000</range>
    <tilt>0</tilt>
    <heading>0</heading>
  </LookAt>
  <Point>
    <coordinates>78.94901,19.0907,0</coordinates>
  </Point>
</Placemark>
<Placemark>
  <name>
    <![CDATA[ADBOSI01]]>
  </name>
  <LookAt>
    <longitude>77.87796</longitude>
    <latitude>19.11283</latitude>
    <range>1000</range>
    <tilt>0</tilt>
    <heading>0</heading>
  </LookAt>
  <Point>
    <coordinates>77.87796,19.11283,0</coordinates>
  </Point>
</Placemark>
<Placemark>
  <name>
    <![CDATA[ADKNOR01]]>
  </name>
  <LookAt>
    <longitude>79.40097</longitude>
    <latitude>19.05286</latitude>
    <range>1000</range>
    <tilt>0</tilt>
    <heading>0</heading>
  </LookAt>
  <Point>
    <coordinates>79.40097,19.05286,0</coordinates>
  </Point>
</Placemark>
<Placemark>
  <name>
    <![CDATA[ADKRMR01]]>
  </name>
  <LookAt>
    <longitude>79.06229</longitude>
    <latitude>19.44382</latitude>
    <range>1000</range>
    <tilt>0</tilt>
    <heading>0</heading>
  </LookAt>
  <Point>
    <coordinates>79.06229,19.44382,0</coordinates>
  </Point>
</Placemark>
<Placemark>
  <name>
    <![CDATA[ADRVND01]]>
  </name>
  <LookAt>
    <longitude>79.78228</longitude>
    <latitude>19.49184</latitude>
    <range>1000</range>
    <tilt>0</tilt>
    <heading>0</heading>
  </LookAt>
  <Point>
    <coordinates>79.78228,19.49184,0</coordinates>
  </Point>
</Placemark>
<Placemark>
  <name>
    <![CDATA[ADBMNI01]]>
  </name>
  <LookAt>
    <longitude>79.57995</longitude>
    <latitude>19.20625</latitude>
    <range>1000</range>
    <tilt>0</tilt>
    <heading>0</heading>
  </LookAt>
  <Point>
    <coordinates>79.57995,19.20625,0</coordinates>
  </Point>
</Placemark>
<Placemark>
  <name>
    <![CDATA[ADPARD01]]>
  </name>
  <LookAt>
    <longitude>77.91954</longitude>
    <latitude>19.25519</latitude>
    <range>1000</range>
    <tilt>0</tilt>
    <heading>0</heading>
  </LookAt>
  <Point>
    <coordinates>77.91954,19.25519,0</coordinates>
  </Point>
</Placemark>
<Placemark>
  <name>
    <![CDATA[ADPALS01]]>
  </name>
  <LookAt>
    <longitude>77.89684</longitude>
    <latitude>19.2307</latitude>
    <range>1000</range>
    <tilt>0</tilt>
    <heading>0</heading>
  </LookAt>
  <Point>
    <coordinates>77.89684,19.2307,0</coordinates>
  </Point>
</Placemark>
<Placemark>
  <name>
    <![CDATA[ADWDUR01]]>
  </name>
  <LookAt>
    <longitude>78.37165</longitude>
    <latitude>19.28622</latitude>
    <range>1000</range>
    <tilt>0</tilt>
    <heading>0</heading>
  </LookAt>
  <Point>
    <coordinates>78.37165,19.28622,0</coordinates>
  </Point>
</Placemark>
<Placemark>
  <name>
    <![CDATA[ADEDBD01]]>
  </name>
  <LookAt>
    <longitude>77.99502</longitude>
    <latitude>19.01369</latitude>
    <range>1000</range>
    <tilt>0</tilt>
    <heading>0</heading>
  </LookAt>
  <Point>
    <coordinates>77.99502,19.01369,0</coordinates>
  </Point>
</Placemark>
<Placemark>
  <name>
    <![CDATA[ADJNOR01]]>
  </name>
  <LookAt>
    <longitude>78.9071</longitude>
    <latitude>19.3725</latitude>
    <range>1000</range>
    <tilt>0</tilt>
    <heading>0</heading>
  </LookAt>
  <Point>
    <coordinates>78.9071,19.3725,0</coordinates>
  </Point>
</Placemark>
<Placemark>
  <name>
    <![CDATA[ADNSGP01]]>
  </name>
  <LookAt>
    <longitude>79.5904</longitude>
    <latitude>18.7899</latitude>
    <range>1000</range>
    <tilt>0</tilt>
    <heading>0</heading>
  </LookAt>
  <Point>
    <coordinates>79.5904,18.7899,0</coordinates>
  </Point>
</Placemark>
<Placemark>
  <name>
    <![CDATA[ADUMRI01]]>
  </name>
  <LookAt>
    <longitude>78.74806</longitude>
    <latitude>19.4401</latitude>
    <range>1000</range>
    <tilt>0</tilt>
    <heading>0</heading>
  </LookAt>
  <Point>
    <coordinates>78.74806,19.4401,0</coordinates>
  </Point>
</Placemark>
<Placemark>
  <name>
    <![CDATA[ADGRP01]]>
  </name>
  <LookAt>
    <longitude>79.73545</longitude>
    <latitude>19.48772</latitude>
    <range>1000</range>
    <tilt>0</tilt>
    <heading>0</heading>
  </LookAt>
  <Point>
    <coordinates>79.73545,19.48772,0</coordinates>
  </Point>
</Placemark>
<Placemark>
  <name>
    <![CDATA[ADMDPA01]]>
  </name>
  <LookAt>
    <longitude>78.74993</longitude>
    <latitude>19.07309</latitude>
    <range>1000</range>
    <tilt>0</tilt>
    <heading>0</heading>
  </LookAt>
  <Point>
    <coordinates>78.74993,19.07309,0</coordinates>
  </Point>
</Placemark>
<Placemark>
  <name>
    <![CDATA[ADMAHA01]]>
  </name>
  <LookAt>
    <longitude>77.85767</longitude>
    <latitude>19.13781</latitude>
    <range>1000</range>
    <tilt>0</tilt>
    <heading>0</heading>
  </LookAt>
  <Point>
    <coordinates>77.85767,19.13781,0</coordinates>
  </Point>
</Placemark>
<Placemark>
  <name>
    <![CDATA[ADKUSL01]]>
  </name>
  <LookAt>
    <longitude>78.18488</longitude>
    <latitude>19.13798</latitude>
    <range>1000</range>
    <tilt>0</tilt>
    <heading>0</heading>
  </LookAt>
  <Point>
    <coordinates>78.18488,19.13798,0</coordinates>
  </Point>
</Placemark>
<Placemark>
  <name>
    <![CDATA[ADELVI01]]>
  </name>
  <LookAt>
    <longitude>77.8831</longitude>
    <latitude>19.02975</latitude>
    <range>1000</range>
    <tilt>0</tilt>
    <heading>0</heading>
  </LookAt>
  <Point>
    <coordinates>77.8831,19.02975,0</coordinates>
  </Point>
</Placemark>
<Placemark>
  <name>
    <![CDATA[ADMTYP01]]>
  </name>
  <LookAt>
    <longitude>79.67895</longitude>
    <latitude>19.5271</latitude>
    <range>1000</range>
    <tilt>0</tilt>
    <heading>0</heading>
  </LookAt>
  <Point>
    <coordinates>79.67895,19.5271,0</coordinates>
  </Point>
</Placemark>
<Placemark>
  <name>
    <![CDATA[ADGNRM01]]>
  </name>
  <LookAt>
    <longitude>79.57751</longitude>
    <latitude>19.36944</latitude>
    <range>1000</range>
    <tilt>0</tilt>
    <heading>0</heading>
  </LookAt>
  <Point>
    <coordinates>79.57751,19.36944,0</coordinates>
  </Point>
</Placemark>
<Placemark>
  <name>
    <![CDATA[ADTMSI01]]>
  </name>
  <LookAt>
    <longitude>78.42342</longitude>
    <latitude>19.68823</latitude>
    <range>1000</range>
    <tilt>0</tilt>
    <heading>0</heading>
  </LookAt>
  <Point>
    <coordinates>78.42342,19.68823,0</coordinates>
  </Point>
</Placemark>
<Placemark>
  <name>
    <![CDATA[ADANRP01]]>
  </name>
  <LookAt>
    <longitude>78.9942</longitude>
    <latitude>19.48303</latitude>
    <range>1000</range>
    <tilt>0</tilt>
    <heading>0</heading>
  </LookAt>
  <Point>
    <coordinates>78.9942,19.48303,0</coordinates>
  </Point>
</Placemark>
<Placemark>
  <name>
    <![CDATA[ADBIRS01]]>
  </name>
  <LookAt>
    <longitude>78.82091</longitude>
    <latitude>19.27993</latitude>
    <range>1000</range>
    <tilt>0</tilt>
    <heading>0</heading>
  </LookAt>
  <Point>
    <coordinates>78.82091,19.27993,0</coordinates>
  </Point>
</Placemark>
<Placemark>
  <name>
    <![CDATA[ADPJAM01]]>
  </name>
  <LookAt>
    <longitude>78.28268</longitude>
    <latitude>19.19122</latitude>
    <range>1000</range>
    <tilt>0</tilt>
    <heading>0</heading>
  </LookAt>
  <Point>
    <coordinates>78.28268,19.19122,0</coordinates>
  </Point>
</Placemark>
<Placemark>
  <name>
    <![CDATA[APMDCL01]]>
  </name>
  <LookAt>
    <longitude>77.35795</longitude>
    <latitude>14.42909</latitude>
    <range>1000</range>
    <tilt>0</tilt>
    <heading>0</heading>
  </LookAt>
  <Point>
    <coordinates>77.35795,14.42909,0</coordinates>
  </Point>
</Placemark>
<Placemark>
  <name>
    <![CDATA[APPKTP01]]>
  </name>
  <LookAt>
    <longitude>77.8503</longitude>
    <latitude>14.96633</latitude>
    <range>1000</range>
    <tilt>0</tilt>
    <heading>0</heading>
  </LookAt>
  <Point>
    <coordinates>77.8503,14.96633,0</coordinates>
  </Point>
</Placemark>
<Placemark>
  <name>
    <![CDATA[APYRBH01]]>
  </name>
  <LookAt>
    <longitude>77.26487</longitude>
    <latitude>13.87284</latitude>
    <range>1000</range>
    <tilt>0</tilt>
    <heading>0</heading>
  </LookAt>
  <Point>
    <coordinates>77.26487,13.87284,0</coordinates>
  </Point>
</Placemark>
<Placemark>
  <name>
    <![CDATA[APKDKD01]]>
  </name>
  <LookAt>
    <longitude>77.77666</longitude>
    <latitude>13.83433</latitude>
    <range>1000</range>
    <tilt>0</tilt>
    <heading>0</heading>
  </LookAt>
  <Point>
    <coordinates>77.77666,13.83433,0</coordinates>
  </Point>
</Placemark>
<Placemark>
  <name>
    <![CDATA[APMNUR01]]>
  </name>
  <LookAt>
    <longitude>77.34129</longitude>
    <latitude>13.86461</latitude>
    <range>1000</range>
    <tilt>0</tilt>
    <heading>0</heading>
  </LookAt>
  <Point>
    <coordinates>77.34129,13.86461,0</coordinates>
  </Point>
</Placemark>
<Placemark>
  <name>
    <![CDATA[APSOME01]]>
  </name>
  <LookAt>
    <longitude>77.80956</longitude>
    <latitude>13.88251</latitude>
    <range>1000</range>
    <tilt>0</tilt>
    <heading>0</heading>
  </LookAt>
  <Point>
    <coordinates>77.80956,13.88251,0</coordinates>
  </Point>
</Placemark>
<Placemark>
  <name>
    <![CDATA[APNGRP01]]>
  </name>
  <LookAt>
    <longitude>77.02219</longitude>
    <latitude>14.73071</latitude>
    <range>1000</range>
    <tilt>0</tilt>
    <heading>0</heading>
  </LookAt>
  <Point>
    <coordinates>77.02219,14.73071,0</coordinates>
  </Point>
</Placemark>
<Placemark>
  <name>
    <![CDATA[APCHBL01]]>
  </name>
  <LookAt>
    <longitude>77.27692</longitude>
    <latitude>15.03374</latitude>
    <range>1000</range>
    <tilt>0</tilt>
    <heading>0</heading>
  </LookAt>
  <Point>
    <coordinates>77.27692,15.03374,0</coordinates>
  </Point>
</Placemark>
<Placemark>
  <name>
    <![CDATA[APDTPL01]]>
  </name>
  <LookAt>
    <longitude>78.04374</longitude>
    <latitude>14.57453</latitude>
    <range>1000</range>
    <tilt>0</tilt>
    <heading>0</heading>
  </LookAt>
  <Point>
    <coordinates>78.04374,14.57453,0</coordinates>
  </Point>
</Placemark>
<Placemark>
  <name>
    <![CDATA[APDRDK01]]>
  </name>
  <LookAt>
    <longitude>77.19612</longitude>
    <latitude>14.48402</latitude>
    <range>1000</range>
    <tilt>0</tilt>
    <heading>0</heading>
  </LookAt>
  <Point>
    <coordinates>77.19612,14.48402,0</coordinates>
  </Point>
</Placemark>
<Placemark>
  <name>
    <![CDATA[APJGRJ01]]>
  </name>
  <LookAt>
    <longitude>77.73828</longitude>
    <latitude>14.12757</latitude>
    <range>1000</range>
    <tilt>0</tilt>
    <heading>0</heading>
  </LookAt>
  <Point>
    <coordinates>77.73828,14.12757,0</coordinates>
  </Point>
</Placemark>
<Placemark>
  <name>
    <![CDATA[APPULR01]]>
  </name>
  <LookAt>
    <longitude>77.79249</longitude>
    <latitude>13.95415</latitude>
    <range>1000</range>
    <tilt>0</tilt>
    <heading>0</heading>
  </LookAt>
  <Point>
    <coordinates>77.79249,13.95415,0</coordinates>
  </Point>
</Placemark>
<Placemark>
  <name>
    <![CDATA[APPTLR01]]>
  </name>
  <LookAt>
    <longitude>77.96458</longitude>
    <latitude>14.81039</latitude>
    <range>1000</range>
    <tilt>0</tilt>
    <heading>0</heading>
  </LookAt>
  <Point>
    <coordinates>77.96458,14.81039,0</coordinates>
  </Point>
</Placemark>
<Placemark>
  <name>
    <![CDATA[APCHDU01]]>
  </name>
  <LookAt>
    <longitude>77.73074</longitude>
    <latitude>14.92327</latitude>
    <range>1000</range>
    <tilt>0</tilt>
    <heading>0</heading>
  </LookAt>
  <Point>
    <coordinates>77.73074,14.92327,0</coordinates>
  </Point>
</Placemark>
<Placemark>
  <name>
    <![CDATA[APVNGC01]]>
  </name>
  <LookAt>
    <longitude>77.86221</longitude>
    <latitude>14.14948</latitude>
    <range>1000</range>
    <tilt>0</tilt>
    <heading>0</heading>
  </LookAt>
  <Point>
    <coordinates>77.86221,14.14948,0</coordinates>
  </Point>
</Placemark>
<Placemark>
  <name>
    <![CDATA[APKURV01]]>
  </name>
  <LookAt>
    <longitude>77.01679</longitude>
    <latitude>15.01447</latitude>
    <range>1000</range>
    <tilt>0</tilt>
    <heading>0</heading>
  </LookAt>
  <Point>
    <coordinates>77.01679,15.01447,0</coordinates>
  </Point>
</Placemark>
<Placemark>
  <name>
    <![CDATA[APMRTL01]]>
  </name>
  <LookAt>
    <longitude>77.37504</longitude>
    <latitude>14.85658</latitude>
    <range>1000</range>
    <tilt>0</tilt>
    <heading>0</heading>
  </LookAt>
  <Point>
    <coordinates>77.37504,14.85658,0</coordinates>
  </Point>
</Placemark>
<Placemark>
  <name>
    <![CDATA[APEDPL01]]>
  </name>
  <LookAt>
    <longitude>77.49426</longitude>
    <latitude>14.94825</latitude>
    <range>1000</range>
    <tilt>0</tilt>
    <heading>0</heading>
  </LookAt>
  <Point>
    <coordinates>77.49426,14.94825,0</coordinates>
  </Point>
</Placemark>
<Placemark>
  <name>
    <![CDATA[APHVLG01]]>
  </name>
  <LookAt>
    <longitude>77.11398</longitude>
    <latitude>15.01065</latitude>
    <range>1000</range>
    <tilt>0</tilt>
    <heading>0</heading>
  </LookAt>
  <Point>
    <coordinates>77.11398,15.01065,0</coordinates>
  </Point>
</Placemark>
<Placemark>
  <name>
    <![CDATA[APMUCH01]]>
  </name>
  <LookAt>
    <longitude>78.21459</longitude>
    <latitude>13.87795</latitude>
    <range>1000</range>
    <tilt>0</tilt>
    <heading>0</heading>
  </LookAt>
  <Point>
    <coordinates>78.21459,13.87795,0</coordinates>
  </Point>
</Placemark>
<Placemark>
  <name>
    <![CDATA[APDMGU01]]>
  </name>
  <LookAt>
    <longitude>77.68856</longitude>
    <latitude>14.98086</latitude>
    <range>1000</range>
    <tilt>0</tilt>
    <heading>0</heading>
  </LookAt>
  <Point>
    <coordinates>77.68856,14.98086,0</coordinates>
  </Point>
</Placemark>
<Placemark>
  <name>
    <![CDATA[APTLPR01]]>
  </name>
  <LookAt>
    <longitude>77.46752</longitude>
    <latitude>14.69658</latitude>
    <range>1000</range>
    <tilt>0</tilt>
    <heading>0</heading>
  </LookAt>
  <Point>
    <coordinates>77.46752,14.69658,0</coordinates>
  </Point>
</Placemark>
<Placemark>
  <name>
    <![CDATA[APKRPT01]]>
  </name>
  <LookAt>
    <longitude>77.53616</longitude>
    <latitude>14.98555</latitude>
    <range>1000</range>
    <tilt>0</tilt>
    <heading>0</heading>
  </LookAt>
  <Point>
    <coordinates>77.53616,14.98555,0</coordinates>
  </Point>
</Placemark>
<Placemark>
  <name>
    <![CDATA[APRAPM01]]>
  </name>
  <LookAt>
    <longitude>77.8516</longitude>
    <latitude>14.47062</latitude>
    <range>1000</range>
    <tilt>0</tilt>
    <heading>0</heading>
  </LookAt>
  <Point>
    <coordinates>77.8516,14.47062,0</coordinates>
  </Point>
</Placemark>
<Placemark>
  <name>
    <![CDATA[APNIDM01]]>
  </name>
  <LookAt>
    <longitude>77.71534</longitude>
    <latitude>14.06808</latitude>
    <range>1000</range>
    <tilt>0</tilt>
    <heading>0</heading>
  </LookAt>
  <Point>
    <coordinates>77.71534,14.06808,0</coordinates>
  </Point>
</Placemark>
<Placemark>
  <name>
    <![CDATA[APNHPR01]]>
  </name>
  <LookAt>
    <longitude>77.15001</longitude>
    <latitude>14.83744</latitude>
    <range>1000</range>
    <tilt>0</tilt>
    <heading>0</heading>
  </LookAt>
  <Point>
    <coordinates>77.15001,14.83744,0</coordinates>
  </Point>
</Placemark>
<Placemark>
  <name>
    <![CDATA[APVGNR01]]>
  </name>
  <LookAt>
    <longitude>78.08067</longitude>
    <latitude>14.85046</latitude>
    <range>1000</range>
    <tilt>0</tilt>
    <heading>0</heading>
  </LookAt>
  <Point>
    <coordinates>78.08067,14.85046,0</coordinates>
  </Point>
</Placemark>
<Placemark>
  <name>
    <![CDATA[CHANDL01]]>
  </name>
  <LookAt>
    <longitude>79.88486</longitude>
    <latitude>13.62349</latitude>
    <range>1000</range>
    <tilt>0</tilt>
    <heading>0</heading>
  </LookAt>
  <Point>
    <coordinates>79.88486,13.62349,0</coordinates>
  </Point>
</Placemark>
<Placemark>
  <name>
    <![CDATA[CHCKDP01]]>
  </name>
  <LookAt>
    <longitude>78.45096</longitude>
    <latitude>13.32396</latitude>
    <range>1000</range>
    <tilt>0</tilt>
    <heading>0</heading>
  </LookAt>
  <Point>
    <coordinates>78.45096,13.32396,0</coordinates>
  </Point>
</Placemark>
<Placemark>
  <name>
    <![CDATA[CHNLPT01]]>
  </name>
  <LookAt>
    <longitude>78.67565</longitude>
    <latitude>13.06889</latitude>
    <range>1000</range>
    <tilt>0</tilt>
    <heading>0</heading>
  </LookAt>
  <Point>
    <coordinates>78.67565,13.06889,0</coordinates>
  </Point>
</Placemark>
<Placemark>
  <name>
    <![CDATA[CHBDVP01]]>
  </name>
  <LookAt>
    <longitude>79.10807</longitude>
    <latitude>13.78944</latitude>
    <range>1000</range>
    <tilt>0</tilt>
    <heading>0</heading>
  </LookAt>
  <Point>
    <coordinates>79.10807,13.78944,0</coordinates>
  </Point>
</Placemark>
<Placemark>
  <name>
    <![CDATA[CHELMN01]]>
  </name>
  <LookAt>
    <longitude>79.04543</longitude>
    <latitude>13.79699</latitude>
    <range>1000</range>
    <tilt>0</tilt>
    <heading>0</heading>
  </LookAt>
  <Point>
    <coordinates>79.04543,13.79699,0</coordinates>
  </Point>
</Placemark>
<Placemark>
  <name>
    <![CDATA[CHPDML01]]>
  </name>
  <LookAt>
    <longitude>79.01306</longitude>
    <latitude>13.68916</latitude>
    <range>1000</range>
    <tilt>0</tilt>
    <heading>0</heading>
  </LookAt>
  <Point>
    <coordinates>79.01306,13.68916,0</coordinates>
  </Point>
</Placemark>
<Placemark>
  <name>
    <![CDATA[CHNAGA01]]>
  </name>
  <LookAt>
    <longitude>78.69817</longitude>
    <latitude>13.69889</latitude>
    <range>1000</range>
    <tilt>0</tilt>
    <heading>0</heading>
  </LookAt>
  <Point>
    <coordinates>78.69817,13.69889,0</coordinates>
  </Point>
</Placemark>
<Placemark>
  <name>
    <![CDATA[CHARAT01]]>
  </name>
  <LookAt>
    <longitude>79.72471</longitude>
    <latitude>13.46746</latitude>
    <range>1000</range>
    <tilt>0</tilt>
    <heading>0</heading>
  </LookAt>
  <Point>
    <coordinates>79.72471,13.46746,0</coordinates>
  </Point>
</Placemark>
<Placemark>
  <name>
    <![CDATA[CHBCNP01]]>
  </name>
  <LookAt>
    <longitude>78.58707</longitude>
    <latitude>12.93987</latitude>
    <range>1000</range>
    <tilt>0</tilt>
    <heading>0</heading>
  </LookAt>
  <Point>
    <coordinates>78.58707,12.93987,0</coordinates>
  </Point>
</Placemark>
<Placemark>
  <name>
    <![CDATA[CHDMJP01]]>
  </name>
  <LookAt>
    <longitude>79.47009</longitude>
    <latitude>13.38983</latitude>
    <range>1000</range>
    <tilt>0</tilt>
    <heading>0</heading>
  </LookAt>
  <Point>
    <coordinates>79.47009,13.38983,0</coordinates>
  </Point>
</Placemark>
<Placemark>
  <name>
    <![CDATA[CHSAMT01]]>
  </name>
  <LookAt>
    <longitude>79.17349</longitude>
    <latitude>13.32578</latitude>
    <range>1000</range>
    <tilt>0</tilt>
    <heading>0</heading>
  </LookAt>
  <Point>
    <coordinates>79.17349,13.32578,0</coordinates>
  </Point>
</Placemark>
<Placemark>
  <name>
    <![CDATA[CHUSKP01]]>
  </name>
  <LookAt>
    <longitude>79.03472</longitude>
    <latitude>13.83725</latitude>
    <range>1000</range>
    <tilt>0</tilt>
    <heading>0</heading>
  </LookAt>
  <Point>
    <coordinates>79.03472,13.83725,0</coordinates>
  </Point>
</Placemark>
<Placemark>
  <name>
    <![CDATA[CHERGP01]]>
  </name>
  <LookAt>
    <longitude>79.00623</longitude>
    <latitude>13.61775</latitude>
    <range>1000</range>
    <tilt>0</tilt>
    <heading>0</heading>
  </LookAt>
  <Point>
    <coordinates>79.00623,13.61775,0</coordinates>
  </Point>
</Placemark>
<Placemark>
  <name>
    <![CDATA[CHPNGR01]]>
  </name>
  <LookAt>
    <longitude>79.59885</longitude>
    <latitude>13.76531</latitude>
    <range>1000</range>
    <tilt>0</tilt>
    <heading>0</heading>
  </LookAt>
  <Point>
    <coordinates>79.59885,13.76531,0</coordinates>
  </Point>
</Placemark>
<Placemark>
  <name>
    <![CDATA[CHKNDD01]]>
  </name>
  <LookAt>
    <longitude>79.627</longitude>
    <latitude>13.64265</latitude>
    <range>1000</range>
    <tilt>0</tilt>
    <heading>0</heading>
  </LookAt>
  <Point>
    <coordinates>79.627,13.64265,0</coordinates>
  </Point>
</Placemark>
<Placemark>
  <name>
    <![CDATA[CHSRKU01]]>
  </name>
  <LookAt>
    <longitude>78.92418</longitude>
    <latitude>13.33858</latitude>
    <range>1000</range>
    <tilt>0</tilt>
    <heading>0</heading>
  </LookAt>
  <Point>
    <coordinates>78.92418,13.33858,0</coordinates>
  </Point>
</Placemark>
<Placemark>
  <name>
    <![CDATA[EGTGNT01]]>
  </name>
  <LookAt>
    <longitude>82.44099</longitude>
    <latitude>17.31172</latitude>
    <range>1000</range>
    <tilt>0</tilt>
    <heading>0</heading>
  </LookAt>
  <Point>
    <coordinates>82.44099,17.31172,0</coordinates>
  </Point>
</Placemark>
<Placemark>
  <name>
    <![CDATA[EGHSVM01]]>
  </name>
  <LookAt>
    <longitude>82.48475</longitude>
    <latitude>17.3248</latitude>
    <range>1000</range>
    <tilt>0</tilt>
    <heading>0</heading>
  </LookAt>
  <Point>
    <coordinates>82.48475,17.3248,0</coordinates>
  </Point>
</Placemark>
<Placemark>
  <name>
    <![CDATA[EGANVD01]]>
  </name>
  <LookAt>
    <longitude>81.73441</longitude>
    <latitude>16.33171</latitude>
    <range>1000</range>
    <tilt>0</tilt>
    <heading>0</heading>
  </LookAt>
  <Point>
    <coordinates>81.73441,16.33171,0</coordinates>
  </Point>
</Placemark>
<Placemark>
  <name>
    <![CDATA[EGSMPR01]]>
  </name>
  <LookAt>
    <longitude>82.11374</longitude>
    <latitude>16.91513</latitude>
    <range>1000</range>
    <tilt>0</tilt>
    <heading>0</heading>
  </LookAt>
  <Point>
    <coordinates>82.11374,16.91513,0</coordinates>
  </Point>
</Placemark>
<Placemark>
  <name>
    <![CDATA[EGKMRG01]]>
  </name>
  <LookAt>
    <longitude>82.29307</longitude>
    <latitude>17.06276</latitude>
    <range>1000</range>
    <tilt>0</tilt>
    <heading>0</heading>
  </LookAt>
  <Point>
    <coordinates>82.29307,17.06276,0</coordinates>
  </Point>
</Placemark>
<Placemark>
  <name>
    <![CDATA[EGTRUP01]]>
  </name>
  <LookAt>
    <longitude>81.92052</longitude>
    <latitude>17.22863</latitude>
    <range>1000</range>
    <tilt>0</tilt>
    <heading>0</heading>
  </LookAt>
  <Point>
    <coordinates>81.92052,17.22863,0</coordinates>
  </Point>
</Placemark>
<Placemark>
  <name>
    <![CDATA[EGNRDT01]]>
  </name>
  <LookAt>
    <longitude>82.05325</longitude>
    <latitude>17.26555</latitude>
    <range>1000</range>
    <tilt>0</tilt>
    <heading>0</heading>
  </LookAt>
  <Point>
    <coordinates>82.05325,17.26555,0</coordinates>
  </Point>
</Placemark>
<Placemark>
  <name>
    <![CDATA[EGMSKP01]]>
  </name>
  <LookAt>
    <longitude>82.12206</longitude>
    <latitude>16.72956</latitude>
    <range>1000</range>
    <tilt>0</tilt>
    <heading>0</heading>
  </LookAt>
  <Point>
    <coordinates>82.12206,16.72956,0</coordinates>
  </Point>
</Placemark>
<Placemark>
  <name>
    <![CDATA[EGKDKP01]]>
  </name>
  <LookAt>
    <longitude>82.20335</longitude>
    <latitude>16.59249</latitude>
    <range>1000</range>
    <tilt>0</tilt>
    <heading>0</heading>
  </LookAt>
  <Point>
    <coordinates>82.20335,16.59249,0</coordinates>
  </Point>
</Placemark>
<Placemark>
  <name>
    <![CDATA[EGKDPM01]]>
  </name>
  <LookAt>
    <longitude>81.80189</longitude>
    <latitude>16.36367</latitude>
    <range>1000</range>
    <tilt>0</tilt>
    <heading>0</heading>
  </LookAt>
  <Point>
    <coordinates>81.80189,16.36367,0</coordinates>
  </Point>
</Placemark>
<Placemark>
  <name>
    <![CDATA[EGKMJR01]]>
  </name>
  <LookAt>
    <longitude>82.20116</longitude>
    <latitude>16.8249</latitude>
    <range>1000</range>
    <tilt>0</tilt>
    <heading>0</heading>
  </LookAt>
  <Point>
    <coordinates>82.20116,16.8249,0</coordinates>
  </Point>
</Placemark>
<Placemark>
  <name>
    <![CDATA[EGMRML01]]>
  </name>
  <LookAt>
    <longitude>82.1634</longitude>
    <latitude>16.67411</latitude>
    <range>1000</range>
    <tilt>0</tilt>
    <heading>0</heading>
  </LookAt>
  <Point>
    <coordinates>82.1634,16.67411,0</coordinates>
  </Point>
</Placemark>
<Placemark>
  <name>
    <![CDATA[EGGVVM01]]>
  </name>
  <LookAt>
    <longitude>82.24143</longitude>
    <latitude>16.69003</latitude>
    <range>1000</range>
    <tilt>0</tilt>
    <heading>0</heading>
  </LookAt>
  <Point>
    <coordinates>82.24143,16.69003,0</coordinates>
  </Point>
</Placemark>
<Placemark>
  <name>
    <![CDATA[GNPPLM01]]>
  </name>
  <LookAt>
    <longitude>79.97065</longitude>
    <latitude>16.54419</latitude>
    <range>1000</range>
    <tilt>0</tilt>
    <heading>0</heading>
  </LookAt>
  <Point>
    <coordinates>79.97065,16.54419,0</coordinates>
  </Point>
</Placemark>
<Placemark>
  <name>
    <![CDATA[GNCNGP01]]>
  </name>
  <LookAt>
    <longitude>79.7609</longitude>
    <latitude>16.49372</latitude>
    <range>1000</range>
    <tilt>0</tilt>
    <heading>0</heading>
  </LookAt>
  <Point>
    <coordinates>79.7609,16.49372,0</coordinates>
  </Point>
</Placemark>
<Placemark>
  <name>
    <![CDATA[GNPALV01]]>
  </name>
  <LookAt>
    <longitude>79.50415</longitude>
    <latitude>16.54006</latitude>
    <range>1000</range>
    <tilt>0</tilt>
    <heading>0</heading>
  </LookAt>
  <Point>
    <coordinates>79.50415,16.54006,0</coordinates>
  </Point>
</Placemark>
<Placemark>
  <name>
    <![CDATA[GNJTPL01]]>
  </name>
  <LookAt>
    <longitude>79.49953</longitude>
    <latitude>16.62404</latitude>
    <range>1000</range>
    <tilt>0</tilt>
    <heading>0</heading>
  </LookAt>
  <Point>
    <coordinates>79.49953,16.62404,0</coordinates>
  </Point>
</Placemark>
<Placemark>
  <name>
    <![CDATA[GNCRGP01]]>
  </name>
  <LookAt>
    <longitude>79.64491</longitude>
    <latitude>16.50428</latitude>
    <range>1000</range>
    <tilt>0</tilt>
    <heading>0</heading>
  </LookAt>
  <Point>
    <coordinates>79.64491,16.50428,0</coordinates>
  </Point>
</Placemark>
<Placemark>
  <name>
    <![CDATA[GNKPRU01]]>
  </name>
  <LookAt>
    <longitude>80.28387</longitude>
    <latitude>16.12321</latitude>
    <range>1000</range>
    <tilt>0</tilt>
    <heading>0</heading>
  </LookAt>
  <Point>
    <coordinates>80.28387,16.12321,0</coordinates>
  </Point>
</Placemark>
<Placemark>
  <name>
    <![CDATA[GNATHY01]]>
  </name>
  <LookAt>
    <longitude>80.68303</longitude>
    <latitude>16.2884</latitude>
    <range>1000</range>
    <tilt>0</tilt>
    <heading>0</heading>
  </LookAt>
  <Point>
    <coordinates>80.68303,16.2884,0</coordinates>
  </Point>
</Placemark>
<Placemark>
  <name>
    <![CDATA[GNBGBD01]]>
  </name>
  <LookAt>
    <longitude>80.09187</longitude>
    <latitude>16.45165</latitude>
    <range>1000</range>
    <tilt>0</tilt>
    <heading>0</heading>
  </LookAt>
  <Point>
    <coordinates>80.09187,16.45165,0</coordinates>
  </Point>
</Placemark>
<Placemark>
  <name>
    <![CDATA[GNGOLI01]]>
  </name>
  <LookAt>
    <longitude>79.5247</longitude>
    <latitude>16.58801</latitude>
    <range>1000</range>
    <tilt>0</tilt>
    <heading>0</heading>
  </LookAt>
  <Point>
    <coordinates>79.5247,16.58801,0</coordinates>
  </Point>
</Placemark>
<Placemark>
  <name>
    <![CDATA[GNGUPD01]]>
  </name>
  <LookAt>
    <longitude>80.08279</longitude>
    <latitude>16.50014</latitude>
    <range>1000</range>
    <tilt>0</tilt>
    <heading>0</heading>
  </LookAt>
  <Point>
    <coordinates>80.08279,16.50014,0</coordinates>
  </Point>
</Placemark>
<Placemark>
  <name>
    <![CDATA[GNVDGT01]]>
  </name>
  <LookAt>
    <longitude>79.69719</longitude>
    <latitude>16.12902</latitude>
    <range>1000</range>
    <tilt>0</tilt>
    <heading>0</heading>
  </LookAt>
  <Point>
    <coordinates>79.69719,16.12902,0</coordinates>
  </Point>
</Placemark>
<Placemark>
  <name>
    <![CDATA[GNPERL01]]>
  </name>
  <LookAt>
    <longitude>80.54439</longitude>
    <latitude>15.88612</latitude>
    <range>1000</range>
    <tilt>0</tilt>
    <heading>0</heading>
  </LookAt>
  <Point>
    <coordinates>80.54439,15.88612,0</coordinates>
  </Point>
</Placemark>
<Placemark>
  <name>
    <![CDATA[GNYNGP01]]>
  </name>
  <LookAt>
    <longitude>79.82238</longitude>
    <latitude>16.02756</latitude>
    <range>1000</range>
    <tilt>0</tilt>
    <heading>0</heading>
  </LookAt>
  <Point>
    <coordinates>79.82238,16.02756,0</coordinates>
  </Point>
</Placemark>
<Placemark>
  <name>
    <![CDATA[GNUPPA01]]>
  </name>
  <LookAt>
    <longitude>79.69527</longitude>
    <latitude>16.05435</latitude>
    <range>1000</range>
    <tilt>0</tilt>
    <heading>0</heading>
  </LookAt>
  <Point>
    <coordinates>79.69527,16.05435,0</coordinates>
  </Point>
</Placemark>
<Placemark>
  <name>
    <![CDATA[GNMIRY01]]>
  </name>
  <LookAt>
    <longitude>79.64227</longitude>
    <latitude>16.47316</latitude>
    <range>1000</range>
    <tilt>0</tilt>
    <heading>0</heading>
  </LookAt>
  <Point>
    <coordinates>79.64227,16.47316,0</coordinates>
  </Point>
</Placemark>
<Placemark>
  <name>
    <![CDATA[GNPDGP01]]>
  </name>
  <LookAt>
    <longitude>79.75272</longitude>
    <latitude>16.52846</latitude>
    <range>1000</range>
    <tilt>0</tilt>
    <heading>0</heading>
  </LookAt>
  <Point>
    <coordinates>79.75272,16.52846,0</coordinates>
  </Point>
</Placemark>
<Placemark>
  <name>
    <![CDATA[GNTHLR01]]>
  </name>
  <LookAt>
    <longitude>80.11369</longitude>
    <latitude>16.51077</latitude>
    <range>1000</range>
    <tilt>0</tilt>
    <heading>0</heading>
  </LookAt>
  <Point>
    <coordinates>80.11369,16.51077,0</coordinates>
  </Point>
</Placemark>
<Placemark>
  <name>
    <![CDATA[KDCTLR01]]>
  </name>
  <LookAt>
    <longitude>78.75267</longitude>
    <latitude>14.16459</latitude>
    <range>1000</range>
    <tilt>0</tilt>
    <heading>0</heading>
  </LookAt>
  <Point>
    <coordinates>78.75267,14.16459,0</coordinates>
  </Point>
</Placemark>
<Placemark>
  <name>
    <![CDATA[KDVLPL01]]>
  </name>
  <LookAt>
    <longitude>78.27135</longitude>
    <latitude>14.36662</latitude>
    <range>1000</range>
    <tilt>0</tilt>
    <heading>0</heading>
  </LookAt>
  <Point>
    <coordinates>78.27135,14.36662,0</coordinates>
  </Point>
</Placemark>
<Placemark>
  <name>
    <![CDATA[KDAKLP01]]>
  </name>
  <LookAt>
    <longitude>79.02802</longitude>
    <latitude>15.13156</latitude>
    <range>1000</range>
    <tilt>0</tilt>
    <heading>0</heading>
  </LookAt>
  <Point>
    <coordinates>79.02802,15.13156,0</coordinates>
  </Point>
</Placemark>
<Placemark>
  <name>
    <![CDATA[KDTKDT01]]>
  </name>
  <LookAt>
    <longitude>78.10742</longitude>
    <latitude>14.8745</latitude>
    <range>1000</range>
    <tilt>0</tilt>
    <heading>0</heading>
  </LookAt>
  <Point>
    <coordinates>78.10742,14.8745,0</coordinates>
  </Point>
</Placemark>
<Placemark>
  <name>
    <![CDATA[KDNARS01]]>
  </name>
  <LookAt>
    <longitude>78.93227</longitude>
    <latitude>15.04957</latitude>
    <range>1000</range>
    <tilt>0</tilt>
    <heading>0</heading>
  </LookAt>
  <Point>
    <coordinates>78.93227,15.04957,0</coordinates>
  </Point>
</Placemark>
<Placemark>
  <name>
    <![CDATA[KDMCNR01]]>
  </name>
  <LookAt>
    <longitude>78.61749</longitude>
    <latitude>14.50706</latitude>
    <range>1000</range>
    <tilt>0</tilt>
    <heading>0</heading>
  </LookAt>
  <Point>
    <coordinates>78.61749,14.50706,0</coordinates>
  </Point>
</Placemark>
<Placemark>
  <name>
    <![CDATA[KDMDPU01]]>
  </name>
  <LookAt>
    <longitude>79.00414</longitude>
    <latitude>13.92979</latitude>
    <range>1000</range>
    <tilt>0</tilt>
    <heading>0</heading>
  </LookAt>
  <Point>
    <coordinates>79.00414,13.92979,0</coordinates>
  </Point>
</Placemark>
<Placemark>
  <name>
    <![CDATA[KDLAVT01]]>
  </name>
  <LookAt>
    <longitude>78.14896</longitude>
    <latitude>14.70489</latitude>
    <range>1000</range>
    <tilt>0</tilt>
    <heading>0</heading>
  </LookAt>
  <Point>
    <coordinates>78.14896,14.70489,0</coordinates>
  </Point>
</Placemark>
<Placemark>
  <name>
    <![CDATA[KDNOOV01]]>
  </name>
  <LookAt>
    <longitude>78.55278</longitude>
    <latitude>14.10235</latitude>
    <range>1000</range>
    <tilt>0</tilt>
    <heading>0</heading>
  </LookAt>
  <Point>
    <coordinates>78.55278,14.10235,0</coordinates>
  </Point>
</Placemark>
<Placemark>
  <name>
    <![CDATA[KDZKTP01]]>
  </name>
  <LookAt>
    <longitude>78.92038</longitude>
    <latitude>14.71378</latitude>
    <range>1000</range>
    <tilt>0</tilt>
    <heading>0</heading>
  </LookAt>
  <Point>
    <coordinates>78.92038,14.71378,0</coordinates>
  </Point>
</Placemark>
<Placemark>
  <name>
    <![CDATA[KDGRGR01]]>
  </name>
  <LookAt>
    <longitude>78.40868</longitude>
    <latitude>14.80289</latitude>
    <range>1000</range>
    <tilt>0</tilt>
    <heading>0</heading>
  </LookAt>
  <Point>
    <coordinates>78.40868,14.80289,0</coordinates>
  </Point>
</Placemark>
<Placemark>
  <name>
    <![CDATA[KNCLLR01]]>
  </name>
  <LookAt>
    <longitude>79.35638</longitude>
    <latitude>18.4059</latitude>
    <range>1000</range>
    <tilt>0</tilt>
    <heading>0</heading>
  </LookAt>
  <Point>
    <coordinates>79.35638,18.4059,0</coordinates>
  </Point>
</Placemark>
<Placemark>
  <name>
    <![CDATA[KNDGDT01]]>
  </name>
  <LookAt>
    <longitude>79.29321</longitude>
    <latitude>18.69434</latitude>
    <range>1000</range>
    <tilt>0</tilt>
    <heading>0</heading>
  </LookAt>
  <Point>
    <coordinates>79.29321,18.69434,0</coordinates>
  </Point>
</Placemark>
<Placemark>
  <name>
    <![CDATA[KNMHMT01]]>
  </name>
  <LookAt>
    <longitude>80.02335</longitude>
    <latitude>18.53159</latitude>
    <range>1000</range>
    <tilt>0</tilt>
    <heading>0</heading>
  </LookAt>
  <Point>
    <coordinates>80.02335,18.53159,0</coordinates>
  </Point>
</Placemark>
<Placemark>
  <name>
    <![CDATA[KNDNTP01]]>
  </name>
  <LookAt>
    <longitude>79.03343</longitude>
    <latitude>19.03747</latitude>
    <range>1000</range>
    <tilt>0</tilt>
    <heading>0</heading>
  </LookAt>
  <Point>
    <coordinates>79.03343,19.03747,0</coordinates>
  </Point>
</Placemark>
<Placemark>
  <name>
    <![CDATA[KNMLMP01]]>
  </name>
  <LookAt>
    <longitude>79.24414</longitude>
    <latitude>18.07282</latitude>
    <range>1000</range>
    <tilt>0</tilt>
    <heading>0</heading>
  </LookAt>
  <Point>
    <coordinates>79.24414,18.07282,0</coordinates>
  </Point>
</Placemark>
<Placemark>
  <name>
    <![CDATA[KNKLNR01]]>
  </name>
  <LookAt>
    <longitude>79.41908</longitude>
    <latitude>18.50363</latitude>
    <range>1000</range>
    <tilt>0</tilt>
    <heading>0</heading>
  </LookAt>
  <Point>
    <coordinates>79.41908,18.50363,0</coordinates>
  </Point>
</Placemark>
<Placemark>
  <name>
    <![CDATA[KNSMLG01]]>
  </name>
  <LookAt>
    <longitude>78.59077</longitude>
    <latitude>18.38013</latitude>
    <range>1000</range>
    <tilt>0</tilt>
    <heading>0</heading>
  </LookAt>
  <Point>
    <coordinates>78.59077,18.38013,0</coordinates>
  </Point>
</Placemark>
<Placemark>
  <name>
    <![CDATA[KNKHDA01]]>
  </name>
  <LookAt>
    <longitude>79.09566</longitude>
    <latitude>18.16844</latitude>
    <range>1000</range>
    <tilt>0</tilt>
    <heading>0</heading>
  </LookAt>
  <Point>
    <coordinates>79.09566,18.16844,0</coordinates>
  </Point>
</Placemark>
<Placemark>
  <name>
    <![CDATA[KNPLTM01]]>
  </name>
  <LookAt>
    <longitude>79.32226</longitude>
    <latitude>18.68295</latitude>
    <range>1000</range>
    <tilt>0</tilt>
    <heading>0</heading>
  </LookAt>
  <Point>
    <coordinates>79.32226,18.68295,0</coordinates>
  </Point>
</Placemark>
<Placemark>
  <name>
    <![CDATA[KNJGPM01]]>
  </name>
  <LookAt>
    <longitude>78.74677</longitude>
    <latitude>18.55503</latitude>
    <range>1000</range>
    <tilt>0</tilt>
    <heading>0</heading>
  </LookAt>
  <Point>
    <coordinates>78.74677,18.55503,0</coordinates>
  </Point>
</Placemark>
<Placemark>
  <name>
    <![CDATA[KNBDKL01]]>
  </name>
  <LookAt>
    <longitude>78.7504</longitude>
    <latitude>18.24149</latitude>
    <range>1000</range>
    <tilt>0</tilt>
    <heading>0</heading>
  </LookAt>
  <Point>
    <coordinates>78.7504,18.24149,0</coordinates>
  </Point>
</Placemark>
<Placemark>
  <name>
    <![CDATA[KNTGDR01]]>
  </name>
  <LookAt>
    <longitude>79.03352</longitude>
    <latitude>19.00868</latitude>
    <range>1000</range>
    <tilt>0</tilt>
    <heading>0</heading>
  </LookAt>
  <Point>
    <coordinates>79.03352,19.00868,0</coordinates>
  </Point>
</Placemark>
<Placemark>
  <name>
    <![CDATA[KNVNMP01]]>
  </name>
  <LookAt>
    <longitude>79.47614</longitude>
    <latitude>18.55266</latitude>
    <range>1000</range>
    <tilt>0</tilt>
    <heading>0</heading>
  </LookAt>
  <Point>
    <coordinates>79.47614,18.55266,0</coordinates>
  </Point>
</Placemark>
<Placemark>
  <name>
    <![CDATA[KNSRPR01]]>
  </name>
  <LookAt>
    <longitude>78.67863</longitude>
    <latitude>18.93893</latitude>
    <range>1000</range>
    <tilt>0</tilt>
    <heading>0</heading>
  </LookAt>
  <Point>
    <coordinates>78.67863,18.93893,0</coordinates>
  </Point>
</Placemark>
<Placemark>
  <name>
    <![CDATA[KNRCHP01]]>
  </name>
  <LookAt>
    <longitude>78.92998</longitude>
    <latitude>18.93283</latitude>
    <range>1000</range>
    <tilt>0</tilt>
    <heading>0</heading>
  </LookAt>
  <Point>
    <coordinates>78.92998,18.93283,0</coordinates>
  </Point>
</Placemark>
<Placemark>
  <name>
    <![CDATA[KNBPLI01]]>
  </name>
  <LookAt>
    <longitude>79.23959</longitude>
    <latitude>18.20361</latitude>
    <range>1000</range>
    <tilt>0</tilt>
    <heading>0</heading>
  </LookAt>
  <Point>
    <coordinates>79.23959,18.20361,0</coordinates>
  </Point>
</Placemark>
<Placemark>
  <name>
    <![CDATA[KNCHPL01]]>
  </name>
  <LookAt>
    <longitude>78.65132</longitude>
    <latitude>18.28332</latitude>
    <range>1000</range>
    <tilt>0</tilt>
    <heading>0</heading>
  </LookAt>
  <Point>
    <coordinates>78.65132,18.28332,0</coordinates>
  </Point>
</Placemark>
<Placemark>
  <name>
    <![CDATA[KNAKNP01]]>
  </name>
  <LookAt>
    <longitude>79.20882</longitude>
    <latitude>18.03405</latitude>
    <range>1000</range>
    <tilt>0</tilt>
    <heading>0</heading>
  </LookAt>
  <Point>
    <coordinates>79.20882,18.03405,0</coordinates>
  </Point>
</Placemark>
<Placemark>
  <name>
    <![CDATA[KNRMPR01]]>
  </name>
  <LookAt>
    <longitude>78.86214</longitude>
    <latitude>18.74036</latitude>
    <range>1000</range>
    <tilt>0</tilt>
    <heading>0</heading>
  </LookAt>
  <Point>
    <coordinates>78.86214,18.74036,0</coordinates>
  </Point>
</Placemark>
<Placemark>
  <name>
    <![CDATA[KNARVL01]]>
  </name>
  <LookAt>
    <longitude>79.02289</longitude>
    <latitude>18.72092</latitude>
    <range>1000</range>
    <tilt>0</tilt>
    <heading>0</heading>
  </LookAt>
  <Point>
    <coordinates>79.02289,18.72092,0</coordinates>
  </Point>
</Placemark>
<Placemark>
  <name>
    <![CDATA[KRGDPK01]]>
  </name>
  <LookAt>
    <longitude>79.35577</longitude>
    <latitude>18.34378</latitude>
    <range>1000</range>
    <tilt>0</tilt>
    <heading>0</heading>
  </LookAt>
  <Point>
    <coordinates>79.35577,18.34378,0</coordinates>
  </Point>
</Placemark>
<Placemark>
  <name>
    <![CDATA[KNELBK01]]>
  </name>
  <LookAt>
    <longitude>79.34445</longitude>
    <latitude>18.38842</latitude>
    <range>1000</range>
    <tilt>0</tilt>
    <heading>0</heading>
  </LookAt>
  <Point>
    <coordinates>79.34445,18.38842,0</coordinates>
  </Point>
</Placemark>
<Placemark>
  <name>
    <![CDATA[KNKLWS01]]>
  </name>
  <LookAt>
    <longitude>79.52523</longitude>
    <latitude>18.48518</latitude>
    <range>1000</range>
    <tilt>0</tilt>
    <heading>0</heading>
  </LookAt>
  <Point>
    <coordinates>79.52523,18.48518,0</coordinates>
  </Point>
</Placemark>
<Placemark>
  <name>
    <![CDATA[KNGGRM01]]>
  </name>
  <LookAt>
    <longitude>79.49763</longitude>
    <latitude>18.50381</latitude>
    <range>1000</range>
    <tilt>0</tilt>
    <heading>0</heading>
  </LookAt>
  <Point>
    <coordinates>79.49763,18.50381,0</coordinates>
  </Point>
</Placemark>
<Placemark>
  <name>
    <![CDATA[KNMLPR01]]>
  </name>
  <LookAt>
    <longitude>78.70601</longitude>
    <latitude>18.96461</latitude>
    <range>1000</range>
    <tilt>0</tilt>
    <heading>0</heading>
  </LookAt>
  <Point>
    <coordinates>78.70601,18.96461,0</coordinates>
  </Point>
</Placemark>
<Placemark>
  <name>
    <![CDATA[KNKTLP01]]>
  </name>
  <LookAt>
    <longitude>78.68709</longitude>
    <latitude>18.74903</latitude>
    <range>1000</range>
    <tilt>0</tilt>
    <heading>0</heading>
  </LookAt>
  <Point>
    <coordinates>78.68709,18.74903,0</coordinates>
  </Point>
</Placemark>
<Placemark>
  <name>
    <![CDATA[KNKNGT01]]>
  </name>
  <LookAt>
    <longitude>79.40103</longitude>
    <latitude>18.44389</latitude>
    <range>1000</range>
    <tilt>0</tilt>
    <heading>0</heading>
  </LookAt>
  <Point>
    <coordinates>79.40103,18.44389,0</coordinates>
  </Point>
</Placemark>
<Placemark>
  <name>
    <![CDATA[KNNKLM01]]>
  </name>
  <LookAt>
    <longitude>78.84799</longitude>
    <latitude>18.55499</latitude>
    <range>1000</range>
    <tilt>0</tilt>
    <heading>0</heading>
  </LookAt>
  <Point>
    <coordinates>78.84799,18.55499,0</coordinates>
  </Point>
</Placemark>
<Placemark>
  <name>
    <![CDATA[KNELLA01]]>
  </name>
  <LookAt>
    <longitude>79.11148</longitude>
    <latitude>18.68598</latitude>
    <range>1000</range>
    <tilt>0</tilt>
    <heading>0</heading>
  </LookAt>
  <Point>
    <coordinates>79.11148,18.68598,0</coordinates>
  </Point>
</Placemark>
<Placemark>
  <name>
    <![CDATA[KNBRPR01]]>
  </name>
  <LookAt>
    <longitude>79.00385</longitude>
    <latitude>18.98934</latitude>
    <range>1000</range>
    <tilt>0</tilt>
    <heading>0</heading>
  </LookAt>
  <Point>
    <coordinates>79.00385,18.98934,0</coordinates>
  </Point>
</Placemark>
<Placemark>
  <name>
    <![CDATA[KNGRVL01]]>
  </name>
  <LookAt>
    <longitude>79.17826</longitude>
    <latitude>18.06841</latitude>
    <range>1000</range>
    <tilt>0</tilt>
    <heading>0</heading>
  </LookAt>
  <Point>
    <coordinates>79.17826,18.06841,0</coordinates>
  </Point>
</Placemark>
<Placemark>
  <name>
    <![CDATA[KNPDLG01]]>
  </name>
  <LookAt>
    <longitude>78.88071</longitude>
    <latitude>18.28308</latitude>
    <range>1000</range>
    <tilt>0</tilt>
    <heading>0</heading>
  </LookAt>
  <Point>
    <coordinates>78.88071,18.28308,0</coordinates>
  </Point>
</Placemark>
<Placemark>
  <name>
    <![CDATA[KNKMKP01]]>
  </name>
  <LookAt>
    <longitude>79.19737</longitude>
    <latitude>18.63194</latitude>
    <range>1000</range>
    <tilt>0</tilt>
    <heading>0</heading>
  </LookAt>
  <Point>
    <coordinates>79.19737,18.63194,0</coordinates>
  </Point>
</Placemark>
<Placemark>
  <name>
    <![CDATA[KNCHKD01]]>
  </name>
  <LookAt>
    <longitude>78.66874</longitude>
    <latitude>18.25615</latitude>
    <range>1000</range>
    <tilt>0</tilt>
    <heading>0</heading>
  </LookAt>
  <Point>
    <coordinates>78.66874,18.25615,0</coordinates>
  </Point>
</Placemark>
<Placemark>
  <name>
    <![CDATA[KNVDBP01]]>
  </name>
  <LookAt>
    <longitude>79.03661</longitude>
    <latitude>18.30996</latitude>
    <range>1000</range>
    <tilt>0</tilt>
    <heading>0</heading>
  </LookAt>
  <Point>
    <coordinates>79.03661,18.30996,0</coordinates>
  </Point>
</Placemark>
<Placemark>
  <name>
    <![CDATA[KNBRSF01]]>
  </name>
  <LookAt>
    <longitude>79.49739</longitude>
    <latitude>18.34605</latitude>
    <range>1000</range>
    <tilt>0</tilt>
    <heading>0</heading>
  </LookAt>
  <Point>
    <coordinates>79.49739,18.34605,0</coordinates>
  </Point>
</Placemark>
<Placemark>
  <name>
    <![CDATA[KNNZMB01]]>
  </name>
  <LookAt>
    <longitude>78.72961</longitude>
    <latitude>18.48167</latitude>
    <range>1000</range>
    <tilt>0</tilt>
    <heading>0</heading>
  </LookAt>
  <Point>
    <coordinates>78.72961,18.48167,0</coordinates>
  </Point>
</Placemark>
<Placemark>
  <name>
    <![CDATA[KNMRZP01]]>
  </name>
  <LookAt>
    <longitude>79.25123</longitude>
    <latitude>18.10492</latitude>
    <range>1000</range>
    <tilt>0</tilt>
    <heading>0</heading>
  </LookAt>
  <Point>
    <coordinates>79.25123,18.10492,0</coordinates>
  </Point>
</Placemark>
<Placemark>
  <name>
    <![CDATA[KNKRPL01]]>
  </name>
  <LookAt>
    <longitude>79.46436</longitude>
    <latitude>18.33877</latitude>
    <range>1000</range>
    <tilt>0</tilt>
    <heading>0</heading>
  </LookAt>
  <Point>
    <coordinates>79.46436,18.33877,0</coordinates>
  </Point>
</Placemark>
<Placemark>
  <name>
    <![CDATA[KNUPPL01]]>
  </name>
  <LookAt>
    <longitude>79.48457</longitude>
    <latitude>18.17996</latitude>
    <range>1000</range>
    <tilt>0</tilt>
    <heading>0</heading>
  </LookAt>
  <Point>
    <coordinates>79.48457,18.17996,0</coordinates>
  </Point>
</Placemark>
<Placemark>
  <name>
    <![CDATA[KNGTBR01]]>
  </name>
  <LookAt>
    <longitude>79.01215</longitude>
    <latitude>18.49845</latitude>
    <range>1000</range>
    <tilt>0</tilt>
    <heading>0</heading>
  </LookAt>
  <Point>
    <coordinates>79.01215,18.49845,0</coordinates>
  </Point>
</Placemark>
<Placemark>
  <name>
    <![CDATA[KNKNPI01]]>
  </name>
  <LookAt>
    <longitude>79.40643</longitude>
    <latitude>18.32354</latitude>
    <range>1000</range>
    <tilt>0</tilt>
    <heading>0</heading>
  </LookAt>
  <Point>
    <coordinates>79.40643,18.32354,0</coordinates>
  </Point>
</Placemark>
<Placemark>
  <name>
    <![CDATA[KNGVRG01]]>
  </name>
  <LookAt>
    <longitude>79.15877</longitude>
    <latitude>18.10437</latitude>
    <range>1000</range>
    <tilt>0</tilt>
    <heading>0</heading>
  </LookAt>
  <Point>
    <coordinates>79.15877,18.10437,0</coordinates>
  </Point>
</Placemark>
<Placemark>
  <name>
    <![CDATA[KNLXPR01]]>
  </name>
  <LookAt>
    <longitude>79.10082</longitude>
    <latitude>18.77759</latitude>
    <range>1000</range>
    <tilt>0</tilt>
    <heading>0</heading>
  </LookAt>
  <Point>
    <coordinates>79.10082,18.77759,0</coordinates>
  </Point>
</Placemark>
<Placemark>
  <name>
    <![CDATA[KNPGDP02]]>
  </name>
  <LookAt>
    <longitude>79.46173</longitude>
    <latitude>18.50673</latitude>
    <range>1000</range>
    <tilt>0</tilt>
    <heading>0</heading>
  </LookAt>
  <Point>
    <coordinates>79.46173,18.50673,0</coordinates>
  </Point>
</Placemark>
<Placemark>
  <name>
    <![CDATA[KNJLRM01]]>
  </name>
  <LookAt>
    <longitude>79.58224</longitude>
    <latitude>18.72155</latitude>
    <range>1000</range>
    <tilt>0</tilt>
    <heading>0</heading>
  </LookAt>
  <Point>
    <coordinates>79.58224,18.72155,0</coordinates>
  </Point>
</Placemark>
<Placemark>
  <name>
    <![CDATA[KNVRDV01]]>
  </name>
  <LookAt>
    <longitude>78.93253</longitude>
    <latitude>18.45016</latitude>
    <range>1000</range>
    <tilt>0</tilt>
    <heading>0</heading>
  </LookAt>
  <Point>
    <coordinates>78.93253,18.45016,0</coordinates>
  </Point>
</Placemark>
<Placemark>
  <name>
    <![CDATA[KNTTLV01]]>
  </name>
  <LookAt>
    <longitude>78.87253</longitude>
    <latitude>18.9695</latitude>
    <range>1000</range>
    <tilt>0</tilt>
    <heading>0</heading>
  </LookAt>
  <Point>
    <coordinates>78.87253,18.9695,0</coordinates>
  </Point>
</Placemark>
<Placemark>
  <name>
    <![CDATA[KNMOTP01]]>
  </name>
  <LookAt>
    <longitude>78.80281</longitude>
    <latitude>18.94821</latitude>
    <range>1000</range>
    <tilt>0</tilt>
    <heading>0</heading>
  </LookAt>
  <Point>
    <coordinates>78.80281,18.94821,0</coordinates>
  </Point>
</Placemark>
<Placemark>
  <name>
    <![CDATA[KNVERQ01]]>
  </name>
  <LookAt>
    <longitude>79.28896</longitude>
    <latitude>18.46529</latitude>
    <range>1000</range>
    <tilt>0</tilt>
    <heading>0</heading>
  </LookAt>
  <Point>
    <coordinates>79.28896,18.46529,0</coordinates>
  </Point>
</Placemark>
<Placemark>
  <name>
    <![CDATA[KNMRGA01]]>
  </name>
  <LookAt>
    <longitude>79.55254</longitude>
    <latitude>18.24194</latitude>
    <range>1000</range>
    <tilt>0</tilt>
    <heading>0</heading>
  </LookAt>
  <Point>
    <coordinates>79.55254,18.24194,0</coordinates>
  </Point>
</Placemark>
<Placemark>
  <name>
    <![CDATA[KNTDCL01]]>
  </name>
  <LookAt>
    <longitude>79.7382</longitude>
    <latitude>18.55004</latitude>
    <range>1000</range>
    <tilt>0</tilt>
    <heading>0</heading>
  </LookAt>
  <Point>
    <coordinates>79.7382,18.55004,0</coordinates>
  </Point>
</Placemark>
<Placemark>
  <name>
    <![CDATA[KNMALQ01]]>
  </name>
  <LookAt>
    <longitude>79.53754</longitude>
    <latitude>18.26145</latitude>
    <range>1000</range>
    <tilt>0</tilt>
    <heading>0</heading>
  </LookAt>
  <Point>
    <coordinates>79.53754,18.26145,0</coordinates>
  </Point>
</Placemark>
<Placemark>
  <name>
    <![CDATA[KNNGRM01]]>
  </name>
  <LookAt>
    <longitude>79.61929</longitude>
    <latitude>18.67229</latitude>
    <range>1000</range>
    <tilt>0</tilt>
    <heading>0</heading>
  </LookAt>
  <Point>
    <coordinates>79.61929,18.67229,0</coordinates>
  </Point>
</Placemark>
<Placemark>
  <name>
    <![CDATA[KNPTPK01]]>
  </name>
  <LookAt>
    <longitude>79.61688</longitude>
    <latitude>18.63983</latitude>
    <range>1000</range>
    <tilt>0</tilt>
    <heading>0</heading>
  </LookAt>
  <Point>
    <coordinates>79.61688,18.63983,0</coordinates>
  </Point>
</Placemark>
<Placemark>
  <name>
    <![CDATA[KNNMPL01]]>
  </name>
  <LookAt>
    <longitude>78.66062</longitude>
    <latitude>18.52287</latitude>
    <range>1000</range>
    <tilt>0</tilt>
    <heading>0</heading>
  </LookAt>
  <Point>
    <coordinates>78.66062,18.52287,0</coordinates>
  </Point>
</Placemark>
<Placemark>
  <name>
    <![CDATA[KNBHOZ01]]>
  </name>
  <LookAt>
    <longitude>78.83196</longitude>
    <latitude>18.94082</latitude>
    <range>1000</range>
    <tilt>0</tilt>
    <heading>0</heading>
  </LookAt>
  <Point>
    <coordinates>78.83196,18.94082,0</coordinates>
  </Point>
</Placemark>
<Placemark>
  <name>
    <![CDATA[KNBTVP01]]>
  </name>
  <LookAt>
    <longitude>79.25896</longitude>
    <latitude>18.71668</latitude>
    <range>1000</range>
    <tilt>0</tilt>
    <heading>0</heading>
  </LookAt>
  <Point>
    <coordinates>79.25896,18.71668,0</coordinates>
  </Point>
</Placemark>
<Placemark>
  <name>
    <![CDATA[KNPLMP01]]>
  </name>
  <LookAt>
    <longitude>79.23489</longitude>
    <latitude>18.30565</latitude>
    <range>1000</range>
    <tilt>0</tilt>
    <heading>0</heading>
  </LookAt>
  <Point>
    <coordinates>79.23489,18.30565,0</coordinates>
  </Point>
</Placemark>
<Placemark>
  <name>
    <![CDATA[KNTLKT01]]>
  </name>
  <LookAt>
    <longitude>79.22613</longitude>
    <latitude>18.59853</latitude>
    <range>1000</range>
    <tilt>0</tilt>
    <heading>0</heading>
  </LookAt>
  <Point>
    <coordinates>79.22613,18.59853,0</coordinates>
  </Point>
</Placemark>
<Placemark>
  <name>
    <![CDATA[KNKHAP01]]>
  </name>
  <LookAt>
    <longitude>78.81609</longitude>
    <latitude>18.64158</latitude>
    <range>1000</range>
    <tilt>0</tilt>
    <heading>0</heading>
  </LookAt>
  <Point>
    <coordinates>78.81609,18.64158,0</coordinates>
  </Point>
</Placemark>
<Placemark>
  <name>
    <![CDATA[KNUTOR01]]>
  </name>
  <LookAt>
    <longitude>79.32297</longitude>
    <latitude>18.45798</latitude>
    <range>1000</range>
    <tilt>0</tilt>
    <heading>0</heading>
  </LookAt>
  <Point>
    <coordinates>79.32297,18.45798,0</coordinates>
  </Point>
</Placemark>
<Placemark>
  <name>
    <![CDATA[KNGORR01]]>
  </name>
  <LookAt>
    <longitude>78.56214</longitude>
    <latitude>18.37041</latitude>
    <range>1000</range>
    <tilt>0</tilt>
    <heading>0</heading>
  </LookAt>
  <Point>
    <coordinates>78.56214,18.37041,0</coordinates>
  </Point>
</Placemark>
<Placemark>
  <name>
    <![CDATA[KNBRPL01]]>
  </name>
  <LookAt>
    <longitude>79.3893</longitude>
    <latitude>18.8058</latitude>
    <range>1000</range>
    <tilt>0</tilt>
    <heading>0</heading>
  </LookAt>
  <Point>
    <coordinates>79.3893,18.8058,0</coordinates>
  </Point>
</Placemark>
<Placemark>
  <name>
    <![CDATA[KNVEMZ01]]>
  </name>
  <LookAt>
    <longitude>78.77951</longitude>
    <latitude>18.97638</latitude>
    <range>1000</range>
    <tilt>0</tilt>
    <heading>0</heading>
  </LookAt>
  <Point>
    <coordinates>78.77951,18.97638,0</coordinates>
  </Point>
</Placemark>
<Placemark>
  <name>
    <![CDATA[KNKORK01]]>
  </name>
  <LookAt>
    <longitude>79.40298</longitude>
    <latitude>18.39289</latitude>
    <range>1000</range>
    <tilt>0</tilt>
    <heading>0</heading>
  </LookAt>
  <Point>
    <coordinates>79.40298,18.39289,0</coordinates>
  </Point>
</Placemark>
<Placemark>
  <name>
    <![CDATA[KNVKPV01]]>
  </name>
  <LookAt>
    <longitude>79.8006</longitude>
    <latitude>18.6558</latitude>
    <range>1000</range>
    <tilt>0</tilt>
    <heading>0</heading>
  </LookAt>
  <Point>
    <coordinates>79.8006,18.6558,0</coordinates>
  </Point>
</Placemark>
<Placemark>
  <name>
    <![CDATA[KNSNGP01]]>
  </name>
  <LookAt>
    <longitude>78.96397</longitude>
    <latitude>18.94652</latitude>
    <range>1000</range>
    <tilt>0</tilt>
    <heading>0</heading>
  </LookAt>
  <Point>
    <coordinates>78.96397,18.94652,0</coordinates>
  </Point>
</Placemark>
<Placemark>
  <name>
    <![CDATA[KNGNRP01]]>
  </name>
  <LookAt>
    <longitude>79.02672</longitude>
    <latitude>18.15112</latitude>
    <range>1000</range>
    <tilt>0</tilt>
    <heading>0</heading>
  </LookAt>
  <Point>
    <coordinates>79.02672,18.15112,0</coordinates>
  </Point>
</Placemark>
<Placemark>
  <name>
    <![CDATA[KNJINA01]]>
  </name>
  <LookAt>
    <longitude>79.07429</longitude>
    <latitude>19.00973</latitude>
    <range>1000</range>
    <tilt>0</tilt>
    <heading>0</heading>
  </LookAt>
  <Point>
    <coordinates>79.07429,19.00973,0</coordinates>
  </Point>
</Placemark>
<Placemark>
  <name>
    <![CDATA[KNDDPI01]]>
  </name>
  <LookAt>
    <longitude>79.46976</longitude>
    <latitude>18.13858</latitude>
    <range>1000</range>
    <tilt>0</tilt>
    <heading>0</heading>
  </LookAt>
  <Point>
    <coordinates>79.46976,18.13858,0</coordinates>
  </Point>
</Placemark>
<Placemark>
  <name>
    <![CDATA[KNMRPT01]]>
  </name>
  <LookAt>
    <longitude>78.61637</longitude>
    <latitude>18.32592</latitude>
    <range>1000</range>
    <tilt>0</tilt>
    <heading>0</heading>
  </LookAt>
  <Point>
    <coordinates>78.61637,18.32592,0</coordinates>
  </Point>
</Placemark>
<Placemark>
  <name>
    <![CDATA[KNKAND01]]>
  </name>
  <LookAt>
    <longitude>79.4523</longitude>
    <latitude>18.17114</latitude>
    <range>1000</range>
    <tilt>0</tilt>
    <heading>0</heading>
  </LookAt>
  <Point>
    <coordinates>79.4523,18.17114,0</coordinates>
  </Point>
</Placemark>
<Placemark>
  <name>
    <![CDATA[KNDRRM01]]>
  </name>
  <LookAt>
    <longitude>78.74568</longitude>
    <latitude>18.44211</latitude>
    <range>1000</range>
    <tilt>0</tilt>
    <heading>0</heading>
  </LookAt>
  <Point>
    <coordinates>78.74568,18.44211,0</coordinates>
  </Point>
</Placemark>
<Placemark>
  <name>
    <![CDATA[KNKUKZ01]]>
  </name>
  <LookAt>
    <longitude>79.31217</longitude>
    <latitude>18.77628</latitude>
    <range>1000</range>
    <tilt>0</tilt>
    <heading>0</heading>
  </LookAt>
  <Point>
    <coordinates>79.31217,18.77628,0</coordinates>
  </Point>
</Placemark>
<Placemark>
  <name>
    <![CDATA[KNTGPL01]]>
  </name>
  <LookAt>
    <longitude>79.0569</longitude>
    <latitude>18.18765</latitude>
    <range>1000</range>
    <tilt>0</tilt>
    <heading>0</heading>
  </LookAt>
  <Point>
    <coordinates>79.0569,18.18765,0</coordinates>
  </Point>
</Placemark>
<Placemark>
  <name>
    <![CDATA[KNPHPL01]]>
  </name>
  <LookAt>
    <longitude>79.45642</longitude>
    <latitude>18.37558</latitude>
    <range>1000</range>
    <tilt>0</tilt>
    <heading>0</heading>
  </LookAt>
  <Point>
    <coordinates>79.45642,18.37558,0</coordinates>
  </Point>
</Placemark>
<Placemark>
  <name>
    <![CDATA[KNANNA01]]>
  </name>
  <LookAt>
    <longitude>79.23675</longitude>
    <latitude>18.40739</latitude>
    <range>1000</range>
    <tilt>0</tilt>
    <heading>0</heading>
  </LookAt>
  <Point>
    <coordinates>79.23675,18.40739,0</coordinates>
  </Point>
</Placemark>
<Placemark>
  <name>
    <![CDATA[KNBUJW01]]>
  </name>
  <LookAt>
    <longitude>79.56357</longitude>
    <latitude>18.33664</latitude>
    <range>1000</range>
    <tilt>0</tilt>
    <heading>0</heading>
  </LookAt>
  <Point>
    <coordinates>79.56357,18.33664,0</coordinates>
  </Point>
</Placemark>
<Placemark>
  <name>
    <![CDATA[KNCHKT01]]>
  </name>
  <LookAt>
    <longitude>79.15865</longitude>
    <latitude>18.5428</latitude>
    <range>1000</range>
    <tilt>0</tilt>
    <heading>0</heading>
  </LookAt>
  <Point>
    <coordinates>79.15865,18.5428,0</coordinates>
  </Point>
</Placemark>
<Placemark>
  <name>
    <![CDATA[KNPTDA01]]>
  </name>
  <LookAt>
    <longitude>79.78791</longitude>
    <latitude>18.52549</latitude>
    <range>1000</range>
    <tilt>0</tilt>
    <heading>0</heading>
  </LookAt>
  <Point>
    <coordinates>79.78791,18.52549,0</coordinates>
  </Point>
</Placemark>
<Placemark>
  <name>
    <![CDATA[KNISRQ01]]>
  </name>
  <LookAt>
    <longitude>79.04836</longitude>
    <latitude>18.82648</latitude>
    <range>1000</range>
    <tilt>0</tilt>
    <heading>0</heading>
  </LookAt>
  <Point>
    <coordinates>79.04836,18.82648,0</coordinates>
  </Point>
</Placemark>
<Placemark>
  <name>
    <![CDATA[KNRDRG01]]>
  </name>
  <LookAt>
    <longitude>78.70179</longitude>
    <latitude>18.62729</latitude>
    <range>1000</range>
    <tilt>0</tilt>
    <heading>0</heading>
  </LookAt>
  <Point>
    <coordinates>78.70179,18.62729,0</coordinates>
  </Point>
</Placemark>
<Placemark>
  <name>
    <![CDATA[KNOGLP01]]>
  </name>
  <LookAt>
    <longitude>78.77512</longitude>
    <latitude>18.3313</latitude>
    <range>1000</range>
    <tilt>0</tilt>
    <heading>0</heading>
  </LookAt>
  <Point>
    <coordinates>78.77512,18.3313,0</coordinates>
  </Point>
</Placemark>
<Placemark>
  <name>
    <![CDATA[KNGNPD01]]>
  </name>
  <LookAt>
    <longitude>79.60281</longitude>
    <latitude>18.69722</latitude>
    <range>1000</range>
    <tilt>0</tilt>
    <heading>0</heading>
  </LookAt>
  <Point>
    <coordinates>79.60281,18.69722,0</coordinates>
  </Point>
</Placemark>
<Placemark>
  <name>
    <![CDATA[KNNRLA01]]>
  </name>
  <LookAt>
    <longitude>79.03164</longitude>
    <latitude>18.91763</latitude>
    <range>1000</range>
    <tilt>0</tilt>
    <heading>0</heading>
  </LookAt>
  <Point>
    <coordinates>79.03164,18.91763,0</coordinates>
  </Point>
</Placemark>
<Placemark>
  <name>
    <![CDATA[KNTHOR01]]>
  </name>
  <LookAt>
    <longitude>79.35573</longitude>
    <latitude>18.465</latitude>
    <range>1000</range>
    <tilt>0</tilt>
    <heading>0</heading>
  </LookAt>
  <Point>
    <coordinates>79.35573,18.465,0</coordinates>
  </Point>
</Placemark>
<Placemark>
  <name>
    <![CDATA[KNKNPE01]]>
  </name>
  <LookAt>
    <longitude>79.12019</longitude>
    <latitude>18.54205</latitude>
    <range>1000</range>
    <tilt>0</tilt>
    <heading>0</heading>
  </LookAt>
  <Point>
    <coordinates>79.12019,18.54205,0</coordinates>
  </Point>
</Placemark>
<Placemark>
  <name>
    <![CDATA[KNKRPT01]]>
  </name>
  <LookAt>
    <longitude>79.5724</longitude>
    <latitude>18.45187</latitude>
    <range>1000</range>
    <tilt>0</tilt>
    <heading>0</heading>
  </LookAt>
  <Point>
    <coordinates>79.5724,18.45187,0</coordinates>
  </Point>
</Placemark>
<Placemark>
  <name>
    <![CDATA[KNABTP01]]>
  </name>
  <LookAt>
    <longitude>80.07228</longitude>
    <latitude>18.69485</latitude>
    <range>1000</range>
    <tilt>0</tilt>
    <heading>0</heading>
  </LookAt>
  <Point>
    <coordinates>80.07228,18.69485,0</coordinates>
  </Point>
</Placemark>
<Placemark>
  <name>
    <![CDATA[KNIBMP02]]>
  </name>
  <LookAt>
    <longitude>78.53393</longitude>
    <latitude>18.90877</latitude>
    <range>1000</range>
    <tilt>0</tilt>
    <heading>0</heading>
  </LookAt>
  <Point>
    <coordinates>78.53393,18.90877,0</coordinates>
  </Point>
</Placemark>
<Placemark>
  <name>
    <![CDATA[KNGMPL01]]>
  </name>
  <LookAt>
    <longitude>79.52151</longitude>
    <latitude>18.40965</latitude>
    <range>1000</range>
    <tilt>0</tilt>
    <heading>0</heading>
  </LookAt>
  <Point>
    <coordinates>79.52151,18.40965,0</coordinates>
  </Point>
</Placemark>
<Placemark>
  <name>
    <![CDATA[KNKTKR01]]>
  </name>
  <LookAt>
    <longitude>79.23814</longitude>
    <latitude>18.03562</latitude>
    <range>1000</range>
    <tilt>0</tilt>
    <heading>0</heading>
  </LookAt>
  <Point>
    <coordinates>79.23814,18.03562,0</coordinates>
  </Point>
</Placemark>
<Placemark>
  <name>
    <![CDATA[KNAITU01]]>
  </name>
  <LookAt>
    <longitude>79.03397</longitude>
    <latitude>18.65674</latitude>
    <range>1000</range>
    <tilt>0</tilt>
    <heading>0</heading>
  </LookAt>
  <Point>
    <coordinates>79.03397,18.65674,0</coordinates>
  </Point>
</Placemark>
<Placemark>
  <name>
    <![CDATA[KNMKTP01]]>
  </name>
  <LookAt>
    <longitude>79.25501</longitude>
    <latitude>18.05172</latitude>
    <range>1000</range>
    <tilt>0</tilt>
    <heading>0</heading>
  </LookAt>
  <Point>
    <coordinates>79.25501,18.05172,0</coordinates>
  </Point>
</Placemark>
<Placemark>
  <name>
    <![CDATA[KNREKO01]]>
  </name>
  <LookAt>
    <longitude>79.24008</longitude>
    <latitude>18.24348</latitude>
    <range>1000</range>
    <tilt>0</tilt>
    <heading>0</heading>
  </LookAt>
  <Point>
    <coordinates>79.24008,18.24348,0</coordinates>
  </Point>
</Placemark>
<Placemark>
  <name>
    <![CDATA[KNABRP01]]>
  </name>
  <LookAt>
    <longitude>79.18699</longitude>
    <latitude>18.79811</latitude>
    <range>1000</range>
    <tilt>0</tilt>
    <heading>0</heading>
  </LookAt>
  <Point>
    <coordinates>79.18699,18.79811,0</coordinates>
  </Point>
</Placemark>
<Placemark>
  <name>
    <![CDATA[KNKNPT01]]>
  </name>
  <LookAt>
    <longitude>79.32533</longitude>
    <latitude>18.33524</latitude>
    <range>1000</range>
    <tilt>0</tilt>
    <heading>0</heading>
  </LookAt>
  <Point>
    <coordinates>79.32533,18.33524,0</coordinates>
  </Point>
</Placemark>
<Placemark>
  <name>
    <![CDATA[KNGVDR01]]>
  </name>
  <LookAt>
    <longitude>78.7747</longitude>
    <latitude>18.66999</latitude>
    <range>1000</range>
    <tilt>0</tilt>
    <heading>0</heading>
  </LookAt>
  <Point>
    <coordinates>78.7747,18.66999,0</coordinates>
  </Point>
</Placemark>
<Placemark>
  <name>
    <![CDATA[KNBDPY01]]>
  </name>
  <LookAt>
    <longitude>78.7345</longitude>
    <latitude>18.52784</latitude>
    <range>1000</range>
    <tilt>0</tilt>
    <heading>0</heading>
  </LookAt>
  <Point>
    <coordinates>78.7345,18.52784,0</coordinates>
  </Point>
</Placemark>
<Placemark>
  <name>
    <![CDATA[KNPANZ01]]>
  </name>
  <LookAt>
    <longitude>79.16458</longitude>
    <latitude>18.12951</latitude>
    <range>1000</range>
    <tilt>0</tilt>
    <heading>0</heading>
  </LookAt>
  <Point>
    <coordinates>79.16458,18.12951,0</coordinates>
  </Point>
</Placemark>
<Placemark>
  <name>
    <![CDATA[KNPRPL01]]>
  </name>
  <LookAt>
    <longitude>79.21604</longitude>
    <latitude>18.28584</latitude>
    <range>1000</range>
    <tilt>0</tilt>
    <heading>0</heading>
  </LookAt>
  <Point>
    <coordinates>79.21604,18.28584,0</coordinates>
  </Point>
</Placemark>
<Placemark>
  <name>
    <![CDATA[KNGLKT01]]>
  </name>
  <LookAt>
    <longitude>79.15058</longitude>
    <latitude>18.77546</latitude>
    <range>1000</range>
    <tilt>0</tilt>
    <heading>0</heading>
  </LookAt>
  <Point>
    <coordinates>79.15058,18.77546,0</coordinates>
  </Point>
</Placemark>
<Placemark>
  <name>
    <![CDATA[KNBHTK01]]>
  </name>
  <LookAt>
    <longitude>79.04028</longitude>
    <latitude>18.72603</latitude>
    <range>1000</range>
    <tilt>0</tilt>
    <heading>0</heading>
  </LookAt>
  <Point>
    <coordinates>79.04028,18.72603,0</coordinates>
  </Point>
</Placemark>
<Placemark>
  <name>
    <![CDATA[KNVTML01]]>
  </name>
  <LookAt>
    <longitude>78.89076</longitude>
    <latitude>18.54531</latitude>
    <range>1000</range>
    <tilt>0</tilt>
    <heading>0</heading>
  </LookAt>
  <Point>
    <coordinates>78.89076,18.54531,0</coordinates>
  </Point>
</Placemark>
<Placemark>
  <name>
    <![CDATA[KNDMRP01]]>
  </name>
  <LookAt>
    <longitude>78.70854</longitude>
    <latitude>19.01539</latitude>
    <range>1000</range>
    <tilt>0</tilt>
    <heading>0</heading>
  </LookAt>
  <Point>
    <coordinates>78.70854,19.01539,0</coordinates>
  </Point>
</Placemark>
<Placemark>
  <name>
    <![CDATA[KNABPR01]]>
  </name>
  <LookAt>
    <longitude>79.23028</longitude>
    <latitude>18.63406</latitude>
    <range>1000</range>
    <tilt>0</tilt>
    <heading>0</heading>
  </LookAt>
  <Point>
    <coordinates>79.23028,18.63406,0</coordinates>
  </Point>
</Placemark>
<Placemark>
  <name>
    <![CDATA[KNTPAL01]]>
  </name>
  <LookAt>
    <longitude>78.99096</longitude>
    <latitude>18.71635</latitude>
    <range>1000</range>
    <tilt>0</tilt>
    <heading>0</heading>
  </LookAt>
  <Point>
    <coordinates>78.99096,18.71635,0</coordinates>
  </Point>
</Placemark>
<Placemark>
  <name>
    <![CDATA[KNCLPR01]]>
  </name>
  <LookAt>
    <longitude>79.45455</longitude>
    <latitude>18.23935</latitude>
    <range>1000</range>
    <tilt>0</tilt>
    <heading>0</heading>
  </LookAt>
  <Point>
    <coordinates>79.45455,18.23935,0</coordinates>
  </Point>
</Placemark>
<Placemark>
  <name>
    <![CDATA[KNGNMK01]]>
  </name>
  <LookAt>
    <longitude>79.38155</longitude>
    <latitude>18.36832</latitude>
    <range>1000</range>
    <tilt>0</tilt>
    <heading>0</heading>
  </LookAt>
  <Point>
    <coordinates>79.38155,18.36832,0</coordinates>
  </Point>
</Placemark>
<Placemark>
  <name>
    <![CDATA[KNNWBP01]]>
  </name>
  <LookAt>
    <longitude>79.17324</longitude>
    <latitude>18.18007</latitude>
    <range>1000</range>
    <tilt>0</tilt>
    <heading>0</heading>
  </LookAt>
  <Point>
    <coordinates>79.17324,18.18007,0</coordinates>
  </Point>
</Placemark>
<Placemark>
  <name>
    <![CDATA[KNVLDI01]]>
  </name>
  <LookAt>
    <longitude>79.25871</longitude>
    <latitude>18.44559</latitude>
    <range>1000</range>
    <tilt>0</tilt>
    <heading>0</heading>
  </LookAt>
  <Point>
    <coordinates>79.25871,18.44559,0</coordinates>
  </Point>
</Placemark>
<Placemark>
  <name>
    <![CDATA[KNRAGT01]]>
  </name>
  <LookAt>
    <longitude>79.03622</longitude>
    <latitude>18.7659</latitude>
    <range>1000</range>
    <tilt>0</tilt>
    <heading>0</heading>
  </LookAt>
  <Point>
    <coordinates>79.03622,18.7659,0</coordinates>
  </Point>
</Placemark>
<Placemark>
  <name>
    <![CDATA[KNCHGM01]]>
  </name>
  <LookAt>
    <longitude>79.27977</longitude>
    <latitude>18.80939</latitude>
    <range>1000</range>
    <tilt>0</tilt>
    <heading>0</heading>
  </LookAt>
  <Point>
    <coordinates>79.27977,18.80939,0</coordinates>
  </Point>
</Placemark>
<Placemark>
  <name>
    <![CDATA[KNBMKL01]]>
  </name>
  <LookAt>
    <longitude>79.33736</longitude>
    <latitude>18.15971</latitude>
    <range>1000</range>
    <tilt>0</tilt>
    <heading>0</heading>
  </LookAt>
  <Point>
    <coordinates>79.33736,18.15971,0</coordinates>
  </Point>
</Placemark>
<Placemark>
  <name>
    <![CDATA[KNSRLP01]]>
  </name>
  <LookAt>
    <longitude>79.13158</longitude>
    <latitude>18.16735</latitude>
    <range>1000</range>
    <tilt>0</tilt>
    <heading>0</heading>
  </LookAt>
  <Point>
    <coordinates>79.13158,18.16735,0</coordinates>
  </Point>
</Placemark>
<Placemark>
  <name>
    <![CDATA[KNVVLA01]]>
  </name>
  <LookAt>
    <longitude>79.55075</longitude>
    <latitude>18.39375</latitude>
    <range>1000</range>
    <tilt>0</tilt>
    <heading>0</heading>
  </LookAt>
  <Point>
    <coordinates>79.55075,18.39375,0</coordinates>
  </Point>
</Placemark>
<Placemark>
  <name>
    <![CDATA[KNRGPT01]]>
  </name>
  <LookAt>
    <longitude>78.66071</longitude>
    <latitude>18.9168</latitude>
    <range>1000</range>
    <tilt>0</tilt>
    <heading>0</heading>
  </LookAt>
  <Point>
    <coordinates>78.66071,18.9168,0</coordinates>
  </Point>
</Placemark>
<Placemark>
  <name>
    <![CDATA[KNVNVK01]]>
  </name>
  <LookAt>
    <longitude>79.41873</longitude>
    <latitude>18.34764</latitude>
    <range>1000</range>
    <tilt>0</tilt>
    <heading>0</heading>
  </LookAt>
  <Point>
    <coordinates>79.41873,18.34764,0</coordinates>
  </Point>
</Placemark>
<Placemark>
  <name>
    <![CDATA[KNKOTH01]]>
  </name>
  <LookAt>
    <longitude>79.16024</longitude>
    <latitude>18.28565</latitude>
    <range>1000</range>
    <tilt>0</tilt>
    <heading>0</heading>
  </LookAt>
  <Point>
    <coordinates>79.16024,18.28565,0</coordinates>
  </Point>
</Placemark>
<Placemark>
  <name>
    <![CDATA[KRVLBI01]]>
  </name>
  <LookAt>
    <longitude>80.11393</longitude>
    <latitude>17.01036</latitude>
    <range>1000</range>
    <tilt>0</tilt>
    <heading>0</heading>
  </LookAt>
  <Point>
    <coordinates>80.11393,17.01036,0</coordinates>
  </Point>
</Placemark>
<Placemark>
  <name>
    <![CDATA[KMJLCH01]]>
  </name>
  <LookAt>
    <longitude>80.0083</longitude>
    <latitude>17.23539</latitude>
    <range>1000</range>
    <tilt>0</tilt>
    <heading>0</heading>
  </LookAt>
  <Point>
    <coordinates>80.0083,17.23539,0</coordinates>
  </Point>
</Placemark>
<Placemark>
  <name>
    <![CDATA[KMGBGT01]]>
  </name>
  <LookAt>
    <longitude>80.36243</longitude>
    <latitude>17.27886</latitude>
    <range>1000</range>
    <tilt>0</tilt>
    <heading>0</heading>
  </LookAt>
  <Point>
    <coordinates>80.36243,17.27886,0</coordinates>
  </Point>
</Placemark>
<Placemark>
  <name>
    <![CDATA[KMRMPD01]]>
  </name>
  <LookAt>
    <longitude>80.2981</longitude>
    <latitude>17.63733</latitude>
    <range>1000</range>
    <tilt>0</tilt>
    <heading>0</heading>
  </LookAt>
  <Point>
    <coordinates>80.2981,17.63733,0</coordinates>
  </Point>
</Placemark>
<Placemark>
  <name>
    <![CDATA[KMMEIX01]]>
  </name>
  <LookAt>
    <longitude>80.47794</longitude>
    <latitude>17.20153</latitude>
    <range>1000</range>
    <tilt>0</tilt>
    <heading>0</heading>
  </LookAt>
  <Point>
    <coordinates>80.47794,17.20153,0</coordinates>
  </Point>
</Placemark>
<Placemark>
  <name>
    <![CDATA[KMSBLD01]]>
  </name>
  <LookAt>
    <longitude>79.90379</longitude>
    <latitude>17.33912</latitude>
    <range>1000</range>
    <tilt>0</tilt>
    <heading>0</heading>
  </LookAt>
  <Point>
    <coordinates>79.90379,17.33912,0</coordinates>
  </Point>
</Placemark>
<Placemark>
  <name>
    <![CDATA[KMRAMT01]]>
  </name>
  <LookAt>
    <longitude>80.5644</longitude>
    <latitude>17.55559</latitude>
    <range>1000</range>
    <tilt>0</tilt>
    <heading>0</heading>
  </LookAt>
  <Point>
    <coordinates>80.5644,17.55559,0</coordinates>
  </Point>
</Placemark>
<Placemark>
  <name>
    <![CDATA[KMGDPD01]]>
  </name>
  <LookAt>
    <longitude>80.33221</longitude>
    <latitude>17.48539</latitude>
    <range>1000</range>
    <tilt>0</tilt>
    <heading>0</heading>
  </LookAt>
  <Point>
    <coordinates>80.33221,17.48539,0</coordinates>
  </Point>
</Placemark>
<Placemark>
  <name>
    <![CDATA[KMNDKD01]]>
  </name>
  <LookAt>
    <longitude>80.90674</longitude>
    <latitude>17.80996</latitude>
    <range>1000</range>
    <tilt>0</tilt>
    <heading>0</heading>
  </LookAt>
  <Point>
    <coordinates>80.90674,17.80996,0</coordinates>
  </Point>
</Placemark>
<Placemark>
  <name>
    <![CDATA[KMTKLP01]]>
  </name>
  <LookAt>
    <longitude>80.47465</longitude>
    <latitude>17.55866</latitude>
    <range>1000</range>
    <tilt>0</tilt>
    <heading>0</heading>
  </LookAt>
  <Point>
    <coordinates>80.47465,17.55866,0</coordinates>
  </Point>
</Placemark>
<Placemark>
  <name>
    <![CDATA[KMNLLP01]]>
  </name>
  <LookAt>
    <longitude>81.00202</longitude>
    <latitude>17.66123</latitude>
    <range>1000</range>
    <tilt>0</tilt>
    <heading>0</heading>
  </LookAt>
  <Point>
    <coordinates>81.00202,17.66123,0</coordinates>
  </Point>
</Placemark>
<Placemark>
  <name>
    <![CDATA[KMGANT01]]>
  </name>
  <LookAt>
    <longitude>80.79253</longitude>
    <latitude>17.81269</latitude>
    <range>1000</range>
    <tilt>0</tilt>
    <heading>0</heading>
  </LookAt>
  <Point>
    <coordinates>80.79253,17.81269,0</coordinates>
  </Point>
</Placemark>
<Placemark>
  <name>
    <![CDATA[KMKDPL01]]>
  </name>
  <LookAt>
    <longitude>81.118</longitude>
    <latitude>17.58146</latitude>
    <range>1000</range>
    <tilt>0</tilt>
    <heading>0</heading>
  </LookAt>
  <Point>
    <coordinates>81.118,17.58146,0</coordinates>
  </Point>
</Placemark>
<Placemark>
  <name>
    <![CDATA[ADYRBP01]]>
  </name>
  <LookAt>
    <longitude>80.53159</longitude>
    <latitude>17.13732</latitude>
    <range>1000</range>
    <tilt>0</tilt>
    <heading>0</heading>
  </LookAt>
  <Point>
    <coordinates>80.53159,17.13732,0</coordinates>
  </Point>
</Placemark>
<Placemark>
  <name>
    <![CDATA[KMSGRP01]]>
  </name>
  <LookAt>
    <longitude>80.36357</longitude>
    <latitude>17.23894</latitude>
    <range>1000</range>
    <tilt>0</tilt>
    <heading>0</heading>
  </LookAt>
  <Point>
    <coordinates>80.36357,17.23894,0</coordinates>
  </Point>
</Placemark>
<Placemark>
  <name>
    <![CDATA[KMRGLA01]]>
  </name>
  <LookAt>
    <longitude>80.63336</longitude>
    <latitude>17.62206</latitude>
    <range>1000</range>
    <tilt>0</tilt>
    <heading>0</heading>
  </LookAt>
  <Point>
    <coordinates>80.63336,17.62206,0</coordinates>
  </Point>
</Placemark>
<Placemark>
  <name>
    <![CDATA[KMNLPT01]]>
  </name>
  <LookAt>
    <longitude>79.99513</longitude>
    <latitude>17.19984</latitude>
    <range>1000</range>
    <tilt>0</tilt>
    <heading>0</heading>
  </LookAt>
  <Point>
    <coordinates>79.99513,17.19984,0</coordinates>
  </Point>
</Placemark>
<Placemark>
  <name>
    <![CDATA[KMKMRM01]]>
  </name>
  <LookAt>
    <longitude>80.31396</longitude>
    <latitude>17.71138</latitude>
    <range>1000</range>
    <tilt>0</tilt>
    <heading>0</heading>
  </LookAt>
  <Point>
    <coordinates>80.31396,17.71138,0</coordinates>
  </Point>
</Placemark>
<Placemark>
  <name>
    <![CDATA[KMNRVG01]]>
  </name>
  <LookAt>
    <longitude>81.08218</longitude>
    <latitude>17.26006</latitude>
    <range>1000</range>
    <tilt>0</tilt>
    <heading>0</heading>
  </LookAt>
  <Point>
    <coordinates>81.08218,17.26006,0</coordinates>
  </Point>
</Placemark>
<Placemark>
  <name>
    <![CDATA[KMNRSM01]]>
  </name>
  <LookAt>
    <longitude>80.73617</longitude>
    <latitude>17.34877</latitude>
    <range>1000</range>
    <tilt>0</tilt>
    <heading>0</heading>
  </LookAt>
  <Point>
    <coordinates>80.73617,17.34877,0</coordinates>
  </Point>
</Placemark>
<Placemark>
  <name>
    <![CDATA[KRCNUR01]]>
  </name>
  <LookAt>
    <longitude>80.49194</longitude>
    <latitude>17.1282</latitude>
    <range>1000</range>
    <tilt>0</tilt>
    <heading>0</heading>
  </LookAt>
  <Point>
    <coordinates>80.49194,17.1282,0</coordinates>
  </Point>
</Placemark>
<Placemark>
  <name>
    <![CDATA[KMNGPL01]]>
  </name>
  <LookAt>
    <longitude>80.87872</longitude>
    <latitude>17.28274</latitude>
    <range>1000</range>
    <tilt>0</tilt>
    <heading>0</heading>
  </LookAt>
  <Point>
    <coordinates>80.87872,17.28274,0</coordinates>
  </Point>
</Placemark>
<Placemark>
  <name>
    <![CDATA[KMMDRM01]]>
  </name>
  <LookAt>
    <longitude>80.22987</longitude>
    <latitude>17.53053</latitude>
    <range>1000</range>
    <tilt>0</tilt>
    <heading>0</heading>
  </LookAt>
  <Point>
    <coordinates>80.22987,17.53053,0</coordinates>
  </Point>
</Placemark>
<Placemark>
  <name>
    <![CDATA[KMCHSM01]]>
  </name>
  <LookAt>
    <longitude>80.24817</longitude>
    <latitude>17.56891</latitude>
    <range>1000</range>
    <tilt>0</tilt>
    <heading>0</heading>
  </LookAt>
  <Point>
    <coordinates>80.24817,17.56891,0</coordinates>
  </Point>
</Placemark>
<Placemark>
  <name>
    <![CDATA[KMVPRM01]]>
  </name>
  <LookAt>
    <longitude>80.92758</longitude>
    <latitude>17.61204</latitude>
    <range>1000</range>
    <tilt>0</tilt>
    <heading>0</heading>
  </LookAt>
  <Point>
    <coordinates>80.92758,17.61204,0</coordinates>
  </Point>
</Placemark>
<Placemark>
  <name>
    <![CDATA[KMMCPT01]]>
  </name>
  <LookAt>
    <longitude>80.5292</longitude>
    <latitude>17.45311</latitude>
    <range>1000</range>
    <tilt>0</tilt>
    <heading>0</heading>
  </LookAt>
  <Point>
    <coordinates>80.5292,17.45311,0</coordinates>
  </Point>
</Placemark>
<Placemark>
  <name>
    <![CDATA[KMKRVG01]]>
  </name>
  <LookAt>
    <longitude>80.67638</longitude>
    <latitude>17.15384</latitude>
    <range>1000</range>
    <tilt>0</tilt>
    <heading>0</heading>
  </LookAt>
  <Point>
    <coordinates>80.67638,17.15384,0</coordinates>
  </Point>
</Placemark>
<Placemark>
  <name>
    <![CDATA[KMJLMD01]]>
  </name>
  <LookAt>
    <longitude>80.38496</longitude>
    <latitude>17.05585</latitude>
    <range>1000</range>
    <tilt>0</tilt>
    <heading>0</heading>
  </LookAt>
  <Point>
    <coordinates>80.38496,17.05585,0</coordinates>
  </Point>
</Placemark>
<Placemark>
  <name>
    <![CDATA[KMTRBA01]]>
  </name>
  <LookAt>
    <longitude>80.89314</longitude>
    <latitude>17.75659</latitude>
    <range>1000</range>
    <tilt>0</tilt>
    <heading>0</heading>
  </LookAt>
  <Point>
    <coordinates>80.89314,17.75659,0</coordinates>
  </Point>
</Placemark>
<Placemark>
  <name>
    <![CDATA[KMPGLD01]]>
  </name>
  <LookAt>
    <longitude>80.49729</longitude>
    <latitude>17.54142</latitude>
    <range>1000</range>
    <tilt>0</tilt>
    <heading>0</heading>
  </LookAt>
  <Point>
    <coordinates>80.49729,17.54142,0</coordinates>
  </Point>
</Placemark>
<Placemark>
  <name>
    <![CDATA[KMMTMR01]]>
  </name>
  <LookAt>
    <longitude>80.32641</longitude>
    <latitude>16.96463</latitude>
    <range>1000</range>
    <tilt>0</tilt>
    <heading>0</heading>
  </LookAt>
  <Point>
    <coordinates>80.32641,16.96463,0</coordinates>
  </Point>
</Placemark>
<Placemark>
  <name>
    <![CDATA[KMKKRV01]]>
  </name>
  <LookAt>
    <longitude>79.82663</longitude>
    <latitude>17.31168</latitude>
    <range>1000</range>
    <tilt>0</tilt>
    <heading>0</heading>
  </LookAt>
  <Point>
    <coordinates>79.82663,17.31168,0</coordinates>
  </Point>
</Placemark>
<Placemark>
  <name>
    <![CDATA[KMIRPM01]]>
  </name>
  <LookAt>
    <longitude>80.13631</longitude>
    <latitude>17.60921</latitude>
    <range>1000</range>
    <tilt>0</tilt>
    <heading>0</heading>
  </LookAt>
  <Point>
    <coordinates>80.13631,17.60921,0</coordinates>
  </Point>
</Placemark>
<Placemark>
  <name>
    <![CDATA[KMGNNM01]]>
  </name>
  <LookAt>
    <longitude>80.4901</longitude>
    <latitude>17.33901</latitude>
    <range>1000</range>
    <tilt>0</tilt>
    <heading>0</heading>
  </LookAt>
  <Point>
    <coordinates>80.4901,17.33901,0</coordinates>
  </Point>
</Placemark>
<Placemark>
  <name>
    <![CDATA[KMPKLG01]]>
  </name>
  <LookAt>
    <longitude>80.58397</longitude>
    <latitude>17.38753</latitude>
    <range>1000</range>
    <tilt>0</tilt>
    <heading>0</heading>
  </LookAt>
  <Point>
    <coordinates>80.58397,17.38753,0</coordinates>
  </Point>
</Placemark>
<Placemark>
  <name>
    <![CDATA[KMPSGD01]]>
  </name>
  <LookAt>
    <longitude>80.75767</longitude>
    <latitude>17.54256</latitude>
    <range>1000</range>
    <tilt>0</tilt>
    <heading>0</heading>
  </LookAt>
  <Point>
    <coordinates>80.75767,17.54256,0</coordinates>
  </Point>
</Placemark>
<Placemark>
  <name>
    <![CDATA[KMRLKP01]]>
  </name>
  <LookAt>
    <longitude>80.41731</longitude>
    <latitude>17.49058</latitude>
    <range>1000</range>
    <tilt>0</tilt>
    <heading>0</heading>
  </LookAt>
  <Point>
    <coordinates>80.41731,17.49058,0</coordinates>
  </Point>
</Placemark>
<Placemark>
  <name>
    <![CDATA[KMBODU01]]>
  </name>
  <LookAt>
    <longitude>80.44348</longitude>
    <latitude>17.67709</latitude>
    <range>1000</range>
    <tilt>0</tilt>
    <heading>0</heading>
  </LookAt>
  <Point>
    <coordinates>80.44348,17.67709,0</coordinates>
  </Point>
</Placemark>
<Placemark>
  <name>
    <![CDATA[KMMOHE01]]>
  </name>
  <LookAt>
    <longitude>80.55164</longitude>
    <latitude>18.04452</latitude>
    <range>1000</range>
    <tilt>0</tilt>
    <heading>0</heading>
  </LookAt>
  <Point>
    <coordinates>80.55164,18.04452,0</coordinates>
  </Point>
</Placemark>
<Placemark>
  <name>
    <![CDATA[KMKOYD01]]>
  </name>
  <LookAt>
    <longitude>80.50702</longitude>
    <latitude>17.58595</latitude>
    <range>1000</range>
    <tilt>0</tilt>
    <heading>0</heading>
  </LookAt>
  <Point>
    <coordinates>80.50702,17.58595,0</coordinates>
  </Point>
</Placemark>
<Placemark>
  <name>
    <![CDATA[KMMHPM01]]>
  </name>
  <LookAt>
    <longitude>80.01668</longitude>
    <latitude>17.18085</latitude>
    <range>1000</range>
    <tilt>0</tilt>
    <heading>0</heading>
  </LookAt>
  <Point>
    <coordinates>80.01668,17.18085,0</coordinates>
  </Point>
</Placemark>
<Placemark>
  <name>
    <![CDATA[KMBLPU01]]>
  </name>
  <LookAt>
    <longitude>80.45733</longitude>
    <latitude>17.2351</latitude>
    <range>1000</range>
    <tilt>0</tilt>
    <heading>0</heading>
  </LookAt>
  <Point>
    <coordinates>80.45733,17.2351,0</coordinates>
  </Point>
</Placemark>
<Placemark>
  <name>
    <![CDATA[KMKMPL01]]>
  </name>
  <LookAt>
    <longitude>80.28206</longitude>
    <latitude>17.45036</latitude>
    <range>1000</range>
    <tilt>0</tilt>
    <heading>0</heading>
  </LookAt>
  <Point>
    <coordinates>80.28206,17.45036,0</coordinates>
  </Point>
</Placemark>
<Placemark>
  <name>
    <![CDATA[KMBTPL02]]>
  </name>
  <LookAt>
    <longitude>80.91125</longitude>
    <latitude>17.21566</latitude>
    <range>1000</range>
    <tilt>0</tilt>
    <heading>0</heading>
  </LookAt>
  <Point>
    <coordinates>80.91125,17.21566,0</coordinates>
  </Point>
</Placemark>